name,latitude,longitude
UBND Phường 17,10.8384347,106.6794039
Cầu Nguyễn Văn Cừ,10.7508118,106.687247
Khách sạn Sofitel,10.784146,106.7022474
Cổng Xe lửa,10.7912452,106.67243
Nhà Thờ Bình Hòa,10.8096755,106.6951544
ETown,10.8025366,106.6409551
ETown,10.8023794,106.6402177
Ngã tư Hoàng Hoa Thám,10.8020742,106.646984
Maximark Cộng Hòa,10.8010259,106.6591016
Công ty Lô Hội,10.8017302,106.6511364
Ngân hàng Quân đội,10.8013897,106.6547482
Vòng xoay Lăng Cha Cả,10.8016016,106.6625401
Đại học Văn Hiến,10.8040672,106.6860864
Bệnh viện Phước An,10.8038785,106.6875737
Phòng Cảnh sát Phòng cháy Chữa cháy Quận Bình Thạnh,10.8033408,106.6916712
Bệnh viện Gia Định,10.8031098,106.6934358
Ngã tư Thích Quảng Đức,10.8025249,106.6836428
Nhà thờ Hàng Xanh,10.8031651,106.7080886
Pico Plaza,10.8013061,106.6535769
Công an Quận Phú Nhuận,10.7996024,106.6737425
Ngã tư Phan Xích Long,10.8004303,106.6817073
Ngã tư Thích Quảng Đức,10.8026388,106.6839835
Trường Đại học Văn Hiến,10.8039006,106.6860951
Siêu thị Big C,10.7999475,106.6695734
Chợ Bà Chiểu,10.8031521,106.6993614
Tòa án Nhân dân Quận Bình Thạnh,10.803862,106.7011965
Chùa Bồ Đề,10.8034539,106.7040522
Ngã tư Phan Xích Long,10.8008736,106.6819424
Ngã ba Bình Giã,10.8022536,106.6444137
Công viên Văn hóa Phú Thuận,10.8033459,106.6903903
Chợ Bà Chiểu,10.8029565,106.6994287
Nhà thờ Hàng Xanh,10.8030956,106.7067035
Bệnh viện Quận Phú Nhuận,10.7983535,106.6706946
Cổng Xe lửa,10.7966018,106.673686
Viện Pasteur,10.7853989,106.6884993
Cây xăng Quân khu 7,10.7995853,106.6685643
Trần Quốc Toản,10.7868705,106.6868737
Chùa Vĩnh Nghiêm,10.7904163,106.6830644
Ngã tư Trần Huy Liệu,10.7932907,106.6792327
Trung tâm Văn hoá Quận Phú Nhuận,10.7952035,106.6760157
Ngã ba Ông Trác,10.9109478,106.5997782
Công ty Carimax Sài Gòn,10.9906013,106.5734981
UBND Tân Thạnh Đông,10.9610725,106.596476
Cây xăng Tài Lộc 3,10.9149929,106.6002909
Ngã ba Bình Mỹ,10.9217339,106.600848
Ngã ba Bình Giã,10.8020485,106.6442726
Nhà trẻ Phước An,10.8932631,106.5973885
Dốc Mít - Chen - Lin,11.0476321,106.5443442
Khu công nghiệp Tân Bình,10.8197459,106.6306651
Cây xăng Quang Vinh,10.9759573,106.5824452
"Chợ, nhà thờ Phú Hòa Đông",11.0283371,106.5649974
Chùa Vĩnh Phước,10.8319835,106.6218512
Cây xăng 57,10.9642516,106.5935974
Ngã tư Phú Nhuận,10.7991173,106.6791544
Công ty Lô Hội,10.8015349,106.6504033
Tân Hiệp 35,10.90162,106.5997363
Cây xăng Tài Lộc,11.0372551,106.5595033
Ngã tư Tân Quy,10.9826594,106.5768764
Trường Mẫu giáo Tân Thạnh Đông,10.9448154,106.6052904
Văn phòng Ấp Bến Đình,11.0520464,106.5375414
Bãi Cát,11.0425582,106.5519989
Chợ Hố Bom,10.9663189,106.5916445
Sân banh - 369 Tỉnh lộ 15,10.9552159,106.6007303
Maximark Cộng Hòa,10.8007993,106.6587685
Công ty Nam Ho,10.9067619,106.5995563
Trường Thiếu Sinh Quân,11.0700074,106.5220078
Ngã tư Tân Kỳ Tân Quý,10.8035281,106.6379043
Dệt Thành Công,10.8220446,106.629927
Trường THCS Tân Thạnh Đông,10.9693666,106.5887434
Trường Tiểu học Phú Hòa Đông 1,11.0226548,106.5640856
Chùa Hoàng Linh - Ấp Văn hóa Bến Mương,11.0806569,106.5162256
Đại học Hồng Bàng,10.7997324,106.7062401
Nhà văn hóa Lao động,10.8159153,106.6979602
Trạm Xe Bus Co.op Mart Nguyễn Văn Linh,10.7291524,106.7099463
Đại học Sư phạm,10.7609339,106.6825968
Đại học Sài Gòn,10.7607412,106.6824043
Sân vận động Quân khu 7,10.8008567,106.6667596
Siêu thị Coopmart - Xa lộ Hà Nội,10.8481683,106.7749791
Cầu Tham Lương - Siêu thị Thiên Hòa,10.8262527,106.6257874
Điện Biên Phủ,10.7802426,106.6870534
Trường Nguyễn Thị Minh Khai,10.7793365,106.6880766
Trương Định,10.7781607,106.68974
Ngã ba Đặng Văn Sâm,10.811436,106.6764291
Rạp Đại Quang,10.752486,106.6588045
Rạp Đại Quang,10.7524128,106.6589436
Công ty Đồng Tâm,10.8419697,106.6434822
Từ Bảo Nghi,10.8145577,106.6050066
Cầu Đen,10.8004536,106.7342359
Khu Công nghệ Cao Quận 9,10.8583246,106.7888257
Trường Đại học Sư phạm Kỹ thuật,10.8498838,106.7724218
Trường Đại học Sư phạm Kỹ thuật,10.8495912,106.7717702
Siêu thị Nguyễn Kim,10.8497947,106.7688098
Siêu thị Nguyễn Kim,10.8496577,106.7691092
Trường Cao đẳng Xây dựng,10.8506564,106.7644654
Ngã ba Chương Dương,10.8504492,106.7608358
Chợ Thủ Đức,10.8502204,106.7544266
Ngã ba Chương Dương,10.8506083,106.7601645
Sân bay Quốc tế Tân Sơn Nhất,10.815564,106.6637513
Bảo tàng Tôn Đức Thắng,10.7776675,106.7070246
Chợ Thủ Đức,10.8511961,106.7543369
Ngã ba Tam Hà - Tô Ngọc Vân,10.8602395,106.7478149
Bệnh viện Thành phố Thủ Đức,10.862958,106.7459355
Tô Vĩnh Diện,10.8543195,106.7689508
Nhà máy Nước Thủ Đức,10.8535431,106.7732385
Ngã ba Lê Văn Chí,10.8540931,106.7719029
Tô Vĩnh Diện,10.8546216,106.768515
Hoàng Diệu 2,10.8571738,106.7663519
Ngã ba Linh Trung - Đường số 6,10.8608728,106.7684772
Đại học Kinh tế Luật,10.8692453,106.7767448
Trường Cao đẳng Xây dựng,10.8507903,106.764113
Làng Thiếu niên Thủ Đức,10.8499304,106.7587727
Công ty Sanofi Aventis,10.8416014,106.7642169
Chợ Bầu Sen,10.7591345,106.6783466
Công viên Văn Lang,10.7571002,106.6696007
Bệnh viện Chợ Rẫy,10.7548685,106.6594476
Thuận Kiều Plaza,10.7545775,106.6580091
Châu Văn Liêm,10.752894,106.6580347
Triệu Quang Phục,10.7530631,106.6619298
Siêu thị Điện máy Chợ Lớn,10.7535527,106.6646685
Chung cư Nguyễn Trãi,10.7542545,106.6681673
Bệnh viện Nguyễn Tri Phương,10.7556835,106.6695131
Cư xá Đô Thành,10.7732529,106.6797477
Trạm Xe Bus Bệnh Viện Bình Dân,10.7745133,106.681099
Cách mạng Tháng 8,10.777081,106.6841548
Bệnh viện Mắt Thành phố,10.7782415,106.6854428
Sở Khoa học Và Công nghệ Thành phố,10.7802465,106.6875796
Trường Trung học Phổ thông Marie Curie,10.7828454,106.690229
Phạm Ngọc Thạch,10.7850268,106.6924163
Công viên Lê Văn Tám,10.7869042,106.6941735
Đinh Tiên Hoàng,10.789511,106.6967242
Cầu Bông,10.7960004,106.6962557
Bệnh viện Quận Bình Thạnh,10.7986201,106.6964219
Lăng Ông Bà Chiểu,10.8009837,106.6965741
Bệnh viện Gia Định,10.8035837,106.6950028
Bệnh viện Ung bướu,10.8054414,106.695747
Trường Tiểu học Nguyễn Đình Chiểu,10.8035722,106.6983624
Tòa án Nhân dân Quận Bình Thạnh,10.8036395,106.7011521
Chùa Bồ Đề,10.8033062,106.7039798
Lăng Lê Văn Duyệt,10.8030815,106.706623
Đường số 20,10.8278653,106.7209914
Cá sấu Hoa cà,10.8335557,106.7283443
Trường Trung học Cơ sở Ngô Chí Quốc,10.8355389,106.7307817
Chùa An Lạc,10.8375756,106.7335202
Trường Cao đẳng Vinatex,10.8407745,106.7441006
Trạm xăng 27-7,10.8412457,106.7462659
Trạm Cầu Ngang,10.8474307,106.7520671
Bùi Minh Trực,10.7363198,106.6562656
Bùi Minh Trực,10.7364818,106.6561627
Cầu Nhị Thiên Đường,10.7386398,106.6563329
Chùa Pháp Quang,10.7386092,106.6561777
Tùng Thiện Vương,10.744774,106.6568736
Chợ Xóm Củi,10.7461307,106.6597469
Bệnh viện Hùng Vương,10.7557328,106.662165
Bệnh viện Hùng Vương,10.7560739,106.6622256
CoopMart Lý Thường Kiệt,10.7595951,106.661237
Trạm Xe Bus Chung Cư Lý Thường Kiệt,10.7613589,106.6607257
Chợ Nhật Tảo,10.7617225,106.6605194
Điện lực Phú Thọ,10.7651927,106.6596828
Bệnh viện Trung Vương,10.7696052,106.6582692
Bệnh viện Trưng Vương,10.7697048,106.6584645
Đại học Bách Khoa,10.7713016,106.6578284
Bưu điện Phú Thọ,10.7754041,106.656636
Bưu điện Phú Thọ,10.7765172,106.6565248
Ngã ba Thành Thái,10.7786848,106.6559366
Siêu thị Nguyễn Kim - CMC Tân Bình,10.7826742,106.6546064
Cây xăng Đôi,10.7838332,106.6544474
Chợ Tân Bình,10.7861392,106.653633
Chợ Tân Bình,10.786201,106.6537713
Bệnh viện Chỉnh hình và Phục hồi Chức năng,10.7887502,106.6528625
Bệnh viện Chỉnh hình và Phục hồi Chức năng,10.7886183,106.6530875
Bệnh viện Thống Nhất,10.7920819,106.6530411
Bệnh viện Thống Nhất,10.7920852,106.6528298
Bệnh viện Quận Tân Bình,10.794588,106.6550469
Hội chợ Triển lãm Tân Bình,10.7961028,106.6551443
Cây xăng Đôi,10.794212,106.6521699
Nhà hàng Đông Phương,10.7985489,106.6592306
Siêu thị Big C - 202 Hoàng Văn Thụ,10.8001274,106.6695561
Đại học Bách Khoa (cổng sau),10.7730637,106.6610755
Đại học Bách Khoa,10.7739998,106.6614617
Ngân hàng Quân Đội - 136 Tô Hiến Thành,10.7755911,106.6628695
Bệnh Viện 115,10.7732847,106.6647972
Trạm Xe Bus Học Viện Quân Y,10.7723901,106.6651725
Trạm Xe Bus Trường THPT Diên Hồng,10.7697677,106.6661891
Trạm Xe Bus Siêu Thị Sài Gòn,10.7685467,106.666733
Bến Bạch Đằng,10.7733704,106.7063876
Trần Bình Trọng,10.7550488,106.679796
Trường Cao đẳng Kinh Tế Đối ngoại,10.7555901,106.6818025
Nguyễn Biểu,10.7558691,106.6828285
Trường Quốc tế Canada,10.7146981,106.7297239
Bệnh viện Phước An,10.8036475,106.6879046
Uỷ ban Nhân dân Quận Bình Thạnh,10.8026975,106.6951454
Trạm Xe Bus Kha Vạn Cân - Ngã 4 Bình Triệu,10.8270992,106.7153558
Kha Vạn Cân,10.8281353,106.7191144
Công ty Coca-Cola,10.8568575,106.7855236
Trường Trung học Cơ sở Hoàng Văn Thụ,10.7633262,106.6680077
Nhà Văn hóa Quận 5,10.7530168,106.6685648
Nhà thi đấu Phú Thọ,10.7706289,106.6567257
Coopmart Phú Thọ,10.7711576,106.653285
Tôn Thất Hiệp,10.7655873,106.6547924
Trường đua Phú Thọ,10.7673398,106.6535431
Trường đua Phú Thọ,10.7672684,106.6533586
Trạm Xe Bus Lê Đại Hành - Đối diện Flemington,10.7648824,106.6551268
Nhà sách Phương Nam,10.7631383,106.658512
Ngã ba Nguyễn Kim,10.7643299,106.6610573
Ngã ba Nguyễn Kim,10.7649041,106.6618098
Bệnh viện Nhi đồng 1,10.7678041,106.6703996
Bệnh viện Nhi đồng 1,10.7679785,106.6697602
Chợ Phường 10,10.7676535,106.6733812
Chợ Phường 10,10.7678299,106.6731242
Hồ Thị Kỷ,10.7673926,106.6756642
Ngã ba Hồ Thị Kỷ,10.7672304,106.6756198
Đại học Khoa học Tự nhiên,10.7622515,106.6830377
Huỳnh Mẫn Đạt,10.7584062,106.6765616
Chợ An Đông,10.7570355,106.6721669
Trạm Xe Bus Ký Túc Xá Đại học Y Dược,10.7578287,106.6674938
Ngã ba Hoàng Hoa Thám,10.7959663,106.6477825
Nhà thờ Đắc Lộ,10.7949952,106.6492935
Ngã ba Hoàng Hoa Thám,10.7966321,106.6462482
Ngã ba Trương Công Định,10.7991248,106.6415737
Chợ Võ Thành Trang,10.8014473,106.6376354
Chợ Võ Thành Trang,10.8012641,106.6376031
Ngã tư Tân Kỳ Tân Quý,10.804763,106.6355732
Tân Kỳ Tân Quý,10.8047905,106.6353958
GO! Trường Chinh,10.8060668,106.6351822
GO! Trường Chinh,10.8063153,106.6347712
Mũi tàu Cộng Hòa,10.8081911,106.6346364
Đài Liệt sĩ,10.8086734,106.6340665
Ngã ba Chế Lan Viên,10.8121668,106.6334489
Uỷ ban Nhân dân Phường 15,10.8195117,106.631238
Ngã ba Chế Lan Viên,10.8144752,106.6322747
Khu công nghiệp Tân Bình,10.8223716,106.6303178
Cầu Tham Lương - Siêu thị Thiên Hòa,10.8268731,106.6259108
Chùa Lạc Quang,10.8346225,106.620731
Chùa Lạc Quang,10.8345148,106.6202115
Biti's,10.838872,106.6173816
Cổng Khu công nghiệp Tân Bình,10.819549,106.629204
Cây xăng Tây Thạnh,10.8161118,106.6255341
Trường Tiểu học Lê Lai,10.8126749,106.6221109
Lê Trọng Tấn,10.8093427,106.6190433
Tây Thạnh,10.8077962,106.6198625
Tây Thạnh,10.8081889,106.6192345
Bờ bao Tân Thắng,10.8072753,106.6223611
Bờ bao Tân Thắng,10.8074974,106.6222332
Trường Đại học Công nghiệp Thực phẩm,10.8061945,106.6283314
Trường Đại học Công nghiệp Thực phẩm,10.8059073,106.6286274
Tân Kỳ Tân Quý,10.8043144,106.631956
Lê Trọng Tấn,10.8032671,106.6317824
Đường số 27,10.802684,106.6285343
Nhà thờ Họ tộc Nguyễn,10.7999593,106.6208442
Trường Tiểu học Tân Quý,10.7984623,106.6169005
Tân Kỳ Tân Quý,10.7958471,106.614064
Trạm Xe Bus Bình Long- Gò Dầu,10.7946777,106.6146996
Trạm Xe Bus Bình Long - Đỗ Thừa Luông,10.7925572,106.6156767
Trạm Xe bus Công An Quận Tân Phú,10.7901103,106.6166588
Lê Sát,10.789729,106.6183502
Chợ Tân Hương,10.7900484,106.6217017
Nhà Thờ Tân Hương,10.7897076,106.6245548
Cafe Suối Reo,10.7898802,106.6278021
Nhà thờ Martino,10.7924644,106.6288547
Tân Sơn Nhì,10.7938599,106.6288109
Chung cư Gò Dầu,10.7957136,106.6282607
Cafe Tino,10.79594,106.6249146
Dương Văn Dương,10.7959217,106.617515
Ngã tư Gò Dầu - Tân Quý,10.7953058,106.6203649
Trạm Y tế Phường Tân Quý,10.7906992,106.6208267
240 Vườn Lài,10.7878312,106.6267785
Trạm Xe Bus Thực phẩm Cầu Tre,10.788083,106.6307064
100 Vườn Lài,10.7877244,106.6336824
14-16 Vườn Lài,10.7866903,106.6360314
Vòng xoay Lê Đại Hành,10.7696037,106.651568
Chợ Tân Phước,10.7718669,106.6499801
Trạm Xe Bus Công An Phường 10,10.7730549,106.6492087
Ngã tư Lạc Long Quân,10.7743607,106.6483843
Uỷ ban Nhân dân Phường 10,10.776098,106.6470824
Chợ Trần Văn Quang,10.7782976,106.6454747
Bàu Cát 8,10.7872481,106.6411615
Công ty Giấy Mai Lan,10.79369,106.6390081
Ngã ba Ba Vân,10.7960029,106.6382834
Ngã ba Bà Quẹo,10.8005979,106.6369862
Công Thọ,10.7842063,106.650851
Công Thọ,10.78433,106.6510088
Ni sư Huỳnh Liên,10.7810213,106.6501117
Chùa Giác Lâm,10.7782129,106.6499476
Âu Cơ,10.7741311,106.6474614
Trường THCS Lê Quý Đôn,10.7678704,106.6429813
Trường Tiểu học Phùng Hưng,10.7645449,106.6422492
Trạm Xe Bus Số 222 Lạc Long Quân,10.7621073,106.6421123
Trạm Xe Bus Chợ Bình Thới,10.7585252,106.642028
trạm xe bus Hàn Hải Nguyên - Minh Phụng,10.7584113,106.6436512
Trạm Xe Bus Số 176 Hàn Hải Nguyên,10.7581932,106.6467608
Hà Tôn Quyền,10.7594595,106.6521345
Lê Đại Hành,10.7615989,106.6560305
Nhà hát Hòa Bình,10.7717065,106.6742079
Nhà hát Hòa Bình,10.7719284,106.6748363
Học viện Hành chính Quốc gia,10.7733768,106.6772301
Công trường Dân Chủ,10.7785069,106.6804476
Rạp hát Thanh Vân,10.7836781,106.6707737
Chợ Hòa Hưng,10.7840832,106.6699956
Công Viên Lê Thị Riêng,10.7857536,106.6669098
Ngã ba Bành Văn Trân,10.7880857,106.6623537
Chùa An Quang,10.7661181,106.671879
Chung cư Ngô Gia Tự,10.7637637,106.6724825
Bệnh viện 30/4,10.7581136,106.6738508
Nhà thờ Cha Tam,10.7527056,106.6539917
Thuần Kiều Plaza,10.7540503,106.65673
Tản Đà,10.7523306,106.6637343
Đồng Khánh,10.7527105,106.6702826
Đồng Khánh,10.7529559,106.6714816
Bệnh viện Chấn thương Chỉnh Hình,10.7544024,106.6781386
Chợ An Lạc,10.7434493,106.6213535
Kinh Dương Vương,10.7449067,106.6231871
Công viên Phú Lâm,10.7464211,106.6244138
Hồ bơi Phú Lâm,10.7496164,106.6284012
Vòng xoay Phú Lâm,10.7534189,106.6333409
Nguyễn Biểu,10.7560844,106.6843556
Chợ Nancy,10.757051,106.68587
Mũi tàu Phú Lâm,10.7455031,106.6246349
Nguyễn Văn Luông,10.7480026,106.6346278
Chợ Thái Bình,10.7669423,106.6875927
Hồ bơi Đại Đồng,10.8070488,106.6950287
Ngã năm Bình Hòa,10.811933,106.6960758
Chợ Phan Văn Trị,10.8124685,106.6952967
Trường Trung cấp Xây dựng TP.HCM,10.8190474,106.7009191
UBND Phường 13,10.8196942,106.7033766
Nhà sách Miền Đông,10.8155578,106.7074115
Ngã sáu Dân Chủ,10.7785222,106.6826522
Đền Trần Hưng Đạo,10.7912747,106.6952364
Công viên Lê Văn Tám,10.7888286,106.6927829
Nhà Thiếu nhi Thành phố,10.7855814,106.6896706
Nhà Thiếu nhi Thành phố,10.7835856,106.6884339
Trạm điện Nguyễn Cửu Vân,10.796765,106.7031914
Trạm điện Nguyễn Cửu Vân,10.797252,106.7045256
Đại học Thể dục Thể thao,10.8705279,106.7961385
Vietcombank - Quốc lộ 1,10.8715667,106.7695683
Trạm Xe Bus Quốc Lộ 1 - Ngã 4 Bà Điểm,10.8352321,106.6074004
Qua Ngã tư Bà Điểm,10.8349577,106.6076027
Gò Mây,10.8134522,106.6007099
Cửa hàng Thảo Vân (Thành Vịnh),10.8082949,106.599622
Phát Đạt,10.7916713,106.5957591
Phát Đạt,10.7914299,106.5961043
Phú Cường,10.8042552,106.5984074
Hương Quê,10.7998508,106.5974815
Tô Ngọc Vân,10.8618955,106.6717916
Cây xăng Thạnh Xuân,10.8615801,106.6717546
Ngã tư Đình,10.8561432,106.6382386
Ngã tư Đình,10.8566031,106.6397735
Chùa Bửu Long,10.768924,106.5909601
Trạm điện Phú Lâm,10.7402013,106.5994626
Công ty Hai Thành,10.7421387,106.5987172
Ngã tư An Lạc,10.7289267,106.6068399
Nhà sách Tân Tạo,10.7580009,106.591445
Trạm xăng số 5,10.7578745,106.5918448
Khu công nghiệp Tân Tạo,10.753078,106.592655
Hoa Hồng - 771 Kinh Dương Vương,10.7266261,106.6052156
SinCo,10.7318159,106.6111166
Chợ An Dương Vương,10.7438863,106.6237778
Lý Chiêu Hoàng,10.7402512,106.6237093
Trạm Xe Bus Chợ Bình Phú,10.738744,106.6264169
Trạm Xe Bus Trường THCS Phú Định,10.7368595,106.6311997
Phạm Văn Chí,10.7389416,106.6335631
Metro Bình Phú,10.7416935,106.6309327
Cầu Phạm Văn Chí,10.7385833,106.635483
Trạm Xe Bus Công Ty CP Thực Phẩm Binh Tây,10.7401805,106.6385559
Trạm Xe Bus Chợ Bình Tiên,10.7426675,106.6429446
Trạm Xe Bus UBND Quận 6,10.7462686,106.6492534
Võ Văn Tần,10.7747207,106.6872266
Bệnh viện Mắt - Bình Dân - Da Liễu,10.7762332,106.684384
Công an Quận 3,10.7772828,106.6824599
Công trường Dân Chủ,10.7774253,106.6825349
Lý Thái Tổ,10.7670943,106.6792694
Chợ Bàn Cờ,10.7682516,106.6803738
Nguyễn Đình Chiểu,10.769645,106.6825102
Nguyễn Thị Nghĩa,10.7699494,106.6934155
Chợ Bến Thành,10.7726204,106.6992917
Mầm non Hoa Lư,10.7851929,106.7087129
Nguyễn Hữu Cảnh,10.7835232,106.7073585
Tân Cảng,10.7965163,106.71979
Hồ bơi Hải Quân,10.7891216,106.7107926
Hồ bơi Hải Quân,10.7894937,106.7106287
Chung cư Manor,10.793332,106.7184473
Nhà hát Thành phố,10.7780395,106.7035068
Bệnh viện Nhi đồng 2,10.7798555,106.701527
Trạm Xe Bus Sư Vạn Hạnh,10.7699578,106.6712238
Calmette,10.7678522,106.6992533
Cách mạng Tháng 8,10.7746712,106.6864365
Chợ Vườn Chuối,10.7722404,106.6841467
Cao Thắng,10.7696813,106.681737
Công viên Lê Văn Tám,10.7871928,106.6927446
Nhà thờ Tân Định,10.7892203,106.6903304
Trần Quang Khải,10.7910093,106.6879654
Chợ Đakao,10.7924976,106.6948579
Viện Pasteur,10.7858932,106.688326
Lý Chính Thắng,10.7892295,106.6846521
Chùa Vĩnh Nghiêm,10.7906868,106.6830812
Trung tâm Văn hoá Quận Phú Nhuận,10.7954552,106.6759988
Cổng Xe lửa,10.79687,106.6736192
Bệnh viện Quận Phú Nhuận,10.7986222,106.6705919
Rạp Tân Sơn Nhất,10.8025381,106.6659124
Bãi xe buýt Phổ Quang,10.8053294,106.6666602
Cây xăng Quân đội  - 96-100 Phổ Quang,10.8071967,106.6684624
Trường Đại học Kỹ thuật Công nghệ,10.8082357,106.6722317
Đầu Đường Đào Duy Anh,10.8079879,106.6740936
Cuối Đường Đào Duy Anh,10.8059264,106.6772195
Ngã ba Đào Duy Anh,10.8048707,106.6777718
Trung tâm Hội nghị Tiệc cưới White Palace,10.7999921,106.6750228
Cuối công viên Gia Định,10.8097474,106.6749061
Cuối Công viên Gia Định,10.8101063,106.6748944
Đầu Công viên Gia Định,10.8131373,106.6779114
Cầu vượt Nguyễn Thái Sơn - Nguyễn Kiệm,10.8162398,106.6804333
Ngã ba Phạm Ngũ Lão,10.8196997,106.6831117
Trạm Xe Bus UBND Phường 3,10.8199071,106.6831457
Cầu vượt Ngã sáu Gò Vấp,10.8237109,106.678986
Trường Cao đẳng Hải quan,10.8124847,106.6786928
Chùa Vạn Hạnh,10.8103396,106.6785381
Co.op Mart Nguyễn Kiệm,10.8070805,106.6784961
Ngã ba Hồ Văn Huê,10.8051009,106.6787217
Nhà Truyền thông,10.8022474,106.6791754
Ngã tư Phú Nhuận,10.7997538,106.680097
Trường Cao đẳng Kinh tế Đối ngoại,10.7978974,106.6808892
Cầu vượt Ngã sáu Gò Vấp,10.8289815,106.6787703
Cầu vượt Ngã sáu Gò Vấp,10.8284951,106.6788602
Cư xá Lam Sơn,10.8361073,106.6755947
Đài Liệt sĩ,10.8392755,106.6758416
Bến Đò,10.8467986,106.6784211
Bến Đò,10.8469995,106.6783213
Cầu An Lộc,10.8491376,106.6787628
Ngã tư Ga,10.8573287,106.6798249
Ngã tư Ga,10.8579377,106.6796912
Công an Quận Phú Nhuận,10.7955336,106.6777416
Trạm Xe Bus Lý Chính Thắng - Huỳnh Tịnh Của,10.7900952,106.6862268
Thượng Uyển,10.8062464,106.6362221
Thượng Uyển,10.8061152,106.6360475
Lý Tự Trọng,10.777076,106.699669
Lê Duẩn,10.7782907,106.6983598
Nguyễn Thị Minh Khai,10.7798086,106.6967169
Đại học Kiến trúc,10.7816448,106.6947138
Điện Biên Phủ,10.7834477,106.6927287
Điện Biên Phủ,10.783203,106.6909482
Co.opmart Nguyễn Đình Chiểu,10.7812374,106.6931136
Chùa Ông,10.7740107,106.6997984
UBND Phường 11,10.7678944,106.6503686
Bình Thới - Ông Ích Khiêm,10.765551,106.6467751
Cổng chào Công viên Đầm Sen,10.7623003,106.6558603
Công viên Lãnh Bình Thăng,10.7632326,106.6502237
Trường Tiểu học Hòa Bình,10.7684025,106.6391689
Trường Trung học Cơ sở Hoàng Diệu,10.7694974,106.6339734
Trung tâm Mua sắm Hòa Bình,10.771257,106.6287413
Đầu Tô Hiệu,10.7730431,106.6274261
Cuối Tô Hiệu,10.7755079,106.6282662
Trạm Xe Bus Nguyễn Lý - Thoại Ngọc Hầu,10.7775068,106.6277592
Lê Cao Lãng,10.7785766,106.6277435
Trần Thủ Độ,10.7817523,106.6287435
Trạm Xe Bus Chợ Tân Phú,10.7823172,106.6281672
Phạm Văn Xảo,10.7835441,106.6241233
Cư xá Nhiêu Lộc,10.7876238,106.6220986
Trạm Xe Bus Ngã 3 Phú Thọ Hòa - Đỗ Đức Dục,10.7849501,106.6261308
Trạm Xe Bus Phú Thọ Hòa - Lê Văn Phan,10.7839685,106.6319412
Trạm Xe Bus KCN Tân Bình,10.8054963,106.6092708
Trạm Xe Bus Nguyễn Thông,10.7792426,106.6820441
Trần Quốc Thảo,10.7838133,106.6827193
Lê Văn Sỹ,10.7885148,106.6781779
Uỷ ban Nhân dân Phường 5,10.825148,106.6879721
Bãi hậu cần số 1,10.823964,106.691945
Nhà thờ Phú Nhuận,10.7986324,106.677556
Đoàn Văn Bơ,10.7637452,106.7040914
Chợ Xóm Chiều,10.7647449,106.7065063
Bưu điện Quận 4,10.7639393,106.7076637
Bưu điện Quận 4,10.7637282,106.7079132
Đại học Nguyễn Tất Thành,10.7618677,106.7093449
Đại học Nguyễn Tất Thành,10.7615245,106.7102061
Trường Trung học Phổ thông Nguyễn Trãi,10.7595282,106.7133495
Nhà thờ Thánh An Tôn,10.7597473,106.7132204
Cầu Tân Thuận 2,10.7516688,106.7241118
Cầu Tân Thuận 2,10.7512201,106.7241853
UBND Phường Tân Thuận Tây,10.7478076,106.7217125
UBND Phường Tân Thuận Tây,10.7468776,106.7219972
Cầu Lý Phục Man,10.7424799,106.7214897
Cầu Lý Phục Man,10.7419321,106.7218917
Nguyễn Thị Thập,10.7395407,106.7214233
Cầu Đa Khoa,10.7390335,106.7218948
Bệnh viện Việt Pháp,10.7309856,106.7188813
Đại Học RMIT,10.7280368,106.6952449
Phúc Minh,10.7285102,106.6796211
Phúc Minh,10.7276247,106.6800261
Cầu Xóm Củi,10.7266795,106.6671757
Cầu Xóm Củi,10.7257434,106.6668196
Chùa Viên Minh,10.7234417,106.6603732
Qua Quốc lộ 50,10.719483,106.6562546
Khu đô thị Hạnh Phúc,10.714941,106.6492892
Quốc Lộ 50,10.7178727,106.6542494
Chung cư Conic,10.7094559,106.6422492
Cầu Bà Lớn,10.7113357,106.6458399
Trịnh Quang Nghị,10.7035587,106.6345871
Đường vào Chợ Bình Điền,10.6950896,106.6120544
Trạm thu phí Nguyễn Văn Linh,10.6945237,106.6131467
Ấp 2,10.692087,106.6009969
Đường Ấp 2,10.6915448,106.6023152
Nút giao Bình Thuận,10.6918912,106.5950342
Bãi xe Phương Trang,10.7211249,106.6003851
Trần Đại Nghĩa,10.7210842,106.6009427
Trạm thu phí Chợ Bình Điền,10.6984334,106.6093501
Trường THPT Nguyễn Du,10.7784986,106.66228
Ngã tư Nguyễn Giản Thanh,10.7826422,106.6648735
Ngã tư Đồng Nai,10.7811147,106.6617399
Đoàn tiếp viên - 76-78 Hồng Hà,10.8130989,106.6690577
Trạm Xe Bus Nguyễn Thái Sơn - Hồng Hà,10.8143411,106.6706282
Chùa Huỳnh Kim,10.8350641,106.6631358
Chợ Hạnh Thông Tây,10.8368656,106.6571176
Chợ Hạnh Thông Tây,10.8365939,106.6574207
Dệt may Phương Đông,10.8384948,106.650511
Dệt may Phương Đông,10.8385076,106.6498331
Làng Trẻ em SOS,10.8399431,106.6464594
Ngã tư Cầu Cống,10.8440328,106.6406657
Ngã tư Cầu Cống,10.8437309,106.6407747
Trường Tiểu học An Hội,10.8451046,106.6417866
Nhà thờ Thạch Đà,10.8509299,106.6545572
Ngã ba Lê Đức Thọ,10.8538843,106.6560836
Cầu Cụt,10.8545006,106.6566863
Trường Tiểu học Lê Thị Hồng Gấm 1,10.8525641,106.6609996
Nhà thờ Hợp An,10.8537319,106.6643926
Trạm Xe Bus Nhà Thờ Hà Nội,10.8518612,106.6652527
Nhà thờ Nữ Vương Hòa Bình,10.8564179,106.6545518
Trạm Xe Bus Lê Văn Thọ - Cây Trâm,10.8419204,106.657179
Nhà hàng Tư Trì,10.849057,106.6566681
Trạm Xe Bus Chợ Thiếc,10.760614,106.6570508
Trạm Xe Bus Công Viên Bình Phú 123,10.7424435,106.62999
Trường THCS Vân Đồn,10.7617562,106.7016772
Khánh Hội,10.7588692,106.6989812
Hồ bơi Quận 4,10.7568422,106.7006956
Hồ bơi Quận 4,10.7563967,106.700844
Cầu Kênh Tẻ,10.7473797,106.7020672
Cầu Kênh Tẻ,10.7471511,106.7022091
Siêu thị Lotte Mart Nguyễn Hữu Thọ,10.7410793,106.7009633
Siêu thị Lotte Mart Nguyễn Hữu Thọ,10.741179,106.701163
Đại học Tôn Đức Thắng,10.7314104,106.7000555
Đại học Tôn Đức Thắng,10.7313704,106.7001792
Trường Mầm non Tân Thuận Tây,10.7533429,106.720941
Ngã ba Tân Quy,10.7517394,106.704563
Ngã ba Tân Quy,10.7513372,106.7050661
Đường số 15,10.744457,106.7043033
Trạm Xe Bus Bến KDC Tân Quy,10.7386276,106.706727
Đường Số 38,10.7389043,106.7106184
Mai Văn Vĩnh,10.7386125,106.7133125
Nghĩa trang Liệt sĩ Huyện Nhà Bè,10.7399433,106.7301633
Nghĩa trang Liệt sĩ Huyện Nhà Bè,10.7403254,106.7299339
Khu chế xuất Tân Thuận,10.7518839,106.7286589
Bùi Văn Ba,10.7494437,106.728848
UBND Phường Tân Hưng,10.7517943,106.7010714
Cầu Rạch Ông,10.7513176,106.6926682
Bệnh viện VIệt Pháp - Tim Tâm Đức,10.7330203,106.718986
Bệnh viện Tim Tâm Đức,10.7334433,106.7190523
Vòng xoay Cây Gõ,10.7534816,106.6430956
Trạm Xe Bus Đình Minh Phụng,10.7530655,106.6452455
Bộ Công an,10.7606257,106.6834574
Phan Văn Trị,10.758079,106.6844448
Cầu Ông Lãnh,10.7667542,106.6960483
Cầu Ông Lãnh,10.7662479,106.6965412
Âu Dương Lân,10.7479471,106.6809806
Công viên Phường 2,10.7492028,106.6835243
Ngân hàng Sacombank - 600A Phạm Thế Hiển,10.7457454,106.6769487
Cao Lỗ,10.7440413,106.6729433
Chợ Phạm Thế Hiển,10.7434826,106.6700102
Công An Quận 8,10.7429959,106.6672016
Quận ủy Quận 8,10.7423399,106.6632303
UBND Quận 8,10.7402767,106.6662206
Ngã tư Bốn Xã,10.7732494,106.6230975
Trạm Xe Bus Bình Long - Ngã 4 Bốn Xã,10.7762789,106.6214527
Bình Long,10.7883388,106.6188906
Trường Tiểu học Võ Văn Tần,10.752236,106.6497207
Trạm Xe Bus Trần Quý - Hàn Hải Nguyên,10.7582245,106.6518136
UBND Phường 2,10.7574567,106.6438602
Đội Cung,10.7618957,106.6446627
Trạm Xe Bus Nơ Trang Long - Phan Văn Trị,10.8105115,106.695143
Chùa Giác Quang,10.8195597,106.6945383
Vincom Plaza,10.8268199,106.689775
Chợ Bến Cát,10.8299456,106.6881775
XP Garden,10.8364743,106.683412
Trạm Xe Bus Lê Văn Thọ - Phạm Văn Chiêu,10.8505696,106.6561724
Đài liệt sĩ,10.8384674,106.6759254
Điện lực Gò Vấp,10.8385433,106.6658149
Trạm Xe Bus Nhà Tang Lễ Gò Vấp,10.8425941,106.6621938
Trạm Xe Bus Chùa Pháp Bảo,10.8447758,106.6608203
Câu lạc bộ Tennis - 322 Lê Văn Thọ,10.8460681,106.6570489
Công viên Phạm Đình Hổ,10.7477072,106.6477586
Minh Phụng,10.7471868,106.6445426
Trạm Xe Bus Bãi Sậy - Minh Phụng,10.746928,106.6430942
Bình Tiên,10.7436674,106.642351
Cửa hàng Điện thoại Di động - 482 Hương lộ 2,10.7719561,106.6177679
589 Hương Lộ 2,10.7703349,106.6147497
Đường số 23,10.7420227,106.6259042
Đường 38,10.7382184,106.6220318
Trạm Xe Bus An Dương Vương - Võ Văn Kiệt,10.7290481,106.6205117
Trạm Xe Bus An Dương Vương - Võ Văn Kiệt,10.7250079,106.62003
Trương Đình Hội,10.7192467,106.61946
Chợ Phú Định,10.7237364,106.6226752
Coopmart Phú Lâm,10.7542828,106.6337242
Chợ Phú Lâm,10.7548805,106.6306009
Ngã tư Cây Da Sà,10.7556548,106.6265561
Chợ Phú Lâm,10.7571411,106.6214375
Da Sà,10.7582375,106.6129066
Chùa Mai Sơn,10.75803,106.6084847
Chợ Bình Trị Đông,10.7560306,106.5937275
Trạm Xe Bus UBND Phường 16 Quận 8,10.7123225,106.6236503
Trạm Xe Bus Chợ Phú Định,10.7180068,106.6227054
Quốc Lộ 1,10.769218,106.5928689
Trạm Xe Bus Giao Đường số 8,10.7355268,106.6896392
Trạm Xe Bus Giao Đường số 8,10.7360544,106.6894305
Trường THCS Dương Bá Trạc,10.7464672,106.6892512
Trường Tiểu học Rạch Ông,10.7449488,106.6891234
Trường THCS Dương Bá Trạc,10.7477987,106.6886089
Ngã tư Bình Hòa,10.8085771,106.6945788
Trạm Xe Bus Lê Quang Định - Nguyễn Thượng Hiền,10.8151055,106.6892294
Trạm Xe Bus Giao Lộ Phạm Văn Đồng,10.8185456,106.6895076
Chi cục thuế Quận Gò Vấp,10.8262729,106.6827082
Chợ Cầu,10.848155,106.6340252
Công an Xã Bình Hưng,10.730805,106.6559814
Bình Hưng,10.720531,106.6556897
Chùa Phật Bà Quan Âm,10.7729072,106.6376121
Trạm Xe Bus Nguyễn Hồng Đào - Bàu Cát,10.7924207,106.6418252
Bàu Cát 2,10.793929,106.6424175
Nhà sách Nhân Văn,10.8338988,106.6079345
Kinh Dương Vương,10.741695,106.614337
Uỷ ban Nhân dân Quận 3,10.7834111,106.6861308
Chợ Nguyễn Văn Trỗi,10.7870574,106.6794812
Chợ Nguyễn Văn Trỗi,10.786952,106.6792902
Nhà thờ Ba Chuông,10.7932667,106.6697283
Ngã tư Phạm Văn Hai,10.7963501,106.6655338
Kênh 19/5,10.8089796,106.6164038
Điện Biên Phủ,10.7809904,106.6886209
Nguyễn Đình Chiểu,10.7794239,106.6903676
Chợ Cây Xoài,10.7773657,106.7667993
Nhà sách Nguyễn Văn Cừ,10.7882452,106.7728523
Trường Tiểu học Nguyễn Văn Trỗi,10.7886717,106.7775933
Cầu Ông Kỳ 2,10.791546,106.781661
Chợ Phước Bình,10.812649,106.7710619
Trường Cao đẳng Kỹ thuật Công nghệ,10.8212777,106.7719961
Uỷ ban Nhân dân Phường Phước Long B,10.8266179,106.7687902
Đường 98,10.8308686,106.7678595
Ngã ba Linh Đông,10.8556331,106.7506626
Điện lực Thủ Đức,10.8665491,106.7385928
Chợ Phú Lâm,10.7571839,106.6316732
Trạm Xe Bus Giao Lộ An Dương Vương,10.7598316,106.6263024
Trạm Xe Bus Tô Hiệu - Nguyễn Văn Yến,10.7628898,106.6270304
Trạm Xe Bus Tô Hiệu - Hòa Bình,10.7709337,106.6269976
Cây Xăng Anh Thư,10.8368079,106.63611
Chùa Linh Sơn Hải Hội,10.8414163,106.6383578
Ngã ba Nguyễn Duy Cung,10.8431445,106.6394604
Trường Bùi Thị Xuân,10.7693473,106.6879224
Nguyễn Văn Thủ,10.7912552,106.7005492
Trạm Xe Bus Hoàng Sa,10.7923606,106.7033984
CoopMart Phan Văn Trị,10.8296479,106.681434
Nhà khách Phía Nam,10.8326622,106.6726733
Chợ Thông Tây,10.8357743,106.6646738
Trạm Xe Bus Cầu Calmette,10.7651414,106.6998546
Trạm Xe Bus Cầu Calmette,10.765093,106.7000617
Hồ Hảo Hớn,10.7599322,106.6946981
Trường Tiểu học Chương Dương,10.7582536,106.6915957
Cầu Nguyễn Văn Cừ - Nhà đèn Chợ Quán,10.7533661,106.6863084
Cầu Nguyễn Văn Cừ,10.7541194,106.6872369
Trần Bình Trọng,10.7519768,106.683172
Nhà đèn Chợ Quân,10.7524966,106.6861358
Bệnh viện Nhiệt Đới,10.7522696,106.678863
Bệnh viện Nhiệt Đới,10.7520924,106.6791944
Chợ Hòa Bình,10.7518688,106.6768378
Cầu Nguyễn Tri Phương,10.7500298,106.6703633
Hải Thượng Lãn Ông,10.7503479,106.6648446
Trạm Xe Bus Đường An Dương Vương,10.726169,106.6197196
Cầu Nước Lên,10.7200552,106.606575
Trường Phú Định,10.7230349,106.6134466
Trạm Xe Bus Giao Lộ Nguyễn Huy Điển,10.8312359,106.6823679
Trạm Xe Bus Giao Lộ Phạm Huy Thông,10.8338317,106.6819856
Trường Văn Thư lưu trữ,10.8369521,106.6808536
Trạm Xe Bus Chợ An Nhơn,10.8404239,106.6787172
Siêu thị - Đối diện 42 Lê Văn Quới,10.7742791,106.619246
Chợ Lê Văn Quới,10.7761635,106.6093969
Ngã ba Ao Đôi,10.7755776,106.6010526
Phòng Tiếp dân,10.7680616,106.6033085
Mã Lò,10.7588234,106.6064461
Trường Đại học Giao thông Vận tải,10.8066342,106.7160731
Đại Học Ngân Hàng TP.HCM,10.858578,106.7629809
Ngã ba Chương Dương,10.856345,106.7566242
Ngã ba Chương Dương,10.8560006,106.7561967
Ngã ba Hoàng Diệu 2,10.8604588,106.7607288
UBND Phường Linh Trung,10.8640139,106.7611956
Công viên Hòa Bình,10.7605765,106.6738263
Công viên Văn Lang,10.7572374,106.6685619
Bệnh viên 7C - Trường Quân y 2,10.8462521,106.7781605
Nhà sách Thành Nghĩa,10.8447187,106.7807202
Chợ Tăng Nhơn Phú A,10.844806,106.7879116
Bệnh viện Quận 9,10.8444643,106.7909018
Đại học Giao thông Vận tải,10.8452193,106.7939485
Chung cư C7,10.8467243,106.80003
Tạ Quang Bửu,10.7365376,106.6673821
Sân vận động Quận 8,10.7398042,106.6693554
Chùa An Phú,10.747371,106.6691917
Chùa An Phú,10.7474763,106.6690121
Trạm Xe Bus Trần Văn Kiểu - Lý Chiêu Hoàng,10.7393632,106.6275583
Đường 72,10.7334139,106.6265986
Bệnh viện Quận 6,10.7472412,106.6352317
Trường Tiểu học Trần Quốc Toản,10.7925829,106.644239
Trạm Xe Bus Đồng Đen - Hồng Lạc,10.7871777,106.6433017
Trạm Xe Bus Kênh Tân Hóa - Âu Cơ,10.7839941,106.6406333
Trạm Xe Bus Kênh Tân Hóa - Trịnh Đình Trọng,10.7765355,106.6387011
Trạm Xe Bus Kênh Tân Hóa - Trịnh Đình Thảo,10.7737461,106.6363516
Trường Tiểu học Bầu Sen,10.7576041,106.6792114
Đại học Sài Gòn,10.7584994,106.6815295
Trường THCS Ba Đình,10.7582676,106.6828074
Bệnh viện Quận 7,10.7377898,106.7237915
Bệnh viện Quận 7,10.7380041,106.7236011
Chùa Huệ Nghiêm,10.7895281,106.7389363
Cầu Ông Tranh,10.7904131,106.7421828
Kí túc xá Đại học Giao thông Vận tải,10.7924295,106.7304534
Kí túc xá Đại học Giao thông Vận tải,10.7924385,106.7307404
Chùa Thái Nguyên,10.7878354,106.7554255
Trường Cấp 3 Giồng Ông Tố,10.7856567,106.7568902
Trường THCS Giồng Ông Tố,10.7880104,106.7587291
Cầu Xây Dựng,10.7907078,106.7884082
Chợ Long Trường,10.8060267,106.8211744
Trường Mầm non Vành Khuyên,10.8478954,106.7600309
Công ty May Sài Gòn,10.843933,106.7624615
Công ty Sanofi Aventis,10.8413676,106.764339
Uỷ ban Nhân dân Quận 9 cũ,10.8405988,106.7690587
Bê tông Hải Âu,10.8438731,106.7709251
Chung cư Thanh Đa,10.8171074,106.7208293
Chùa Bửu Liên,10.8107793,106.7137238
Nhà sách An Bình,10.7963633,106.7311185
Khu phố 2 Gò Dưa,10.8714209,106.7418806
Rửa xe Ba Lực,10.8673524,106.7448694
Đường Phú Châu,10.8628185,106.7447331
Bồn nước,10.8530103,106.7516988
Đại học Khoa học Xã hội Nhân văn,10.7857614,106.7025976
Trạm Xe Bus Đại Học Khoa Học Xã Hội Nhân Văn,10.7857132,106.7024048
Tôn Thất Tùng,10.768731,106.6903772
Công trường Mê Linh,10.776917,106.7058354
Bệnh Viện Nhi Đồng - Sư Vạn Hạnh - BV 115,10.7695408,106.6706962
Thái Phiên,10.7560911,106.6459619
Chợ Minh Phụng,10.7508595,106.6426018
Công trường Mê Linh,10.7760722,106.7056997
Lò Siêu,10.7572962,106.6480884
Nhà thờ Tin Lành Nguyễn Tri Phương,10.7662194,106.6645872
Nhà Thờ Vinh Sơn,10.7703472,106.6722768
Điện Biên Phủ,10.7718742,106.6798899
Phú Thọ,10.7625272,106.6577416
Vòng xoay Cây Gõ,10.7552592,106.6443751
Bảo tàng Miền Đông,10.8002354,106.6663437
Công ty May Sài Gòn,10.8441528,106.7621646
Nhà sách Thành Nghĩa,10.845058,106.7805113
Bệnh Viện Mắt TP.HCM,10.7791824,106.6856155
Ấp Chiến lược,10.7610857,106.622842
Trạm Xe Bus UBND Phường Bình Trị Đông,10.7621276,106.6217586
Ao cá Cây Bàng,10.7649064,106.6186062
Mỹ Hảo,10.7664887,106.6168296
Tân Khai,10.7685827,106.6145383
Trạm Xe Bus Chợ Bình Trị Đông,10.7638791,106.6130648
Trạm Xe Bus Ngã Ba Lô Tư,10.7852923,106.5984081
Cầu Kinh mới,10.7919776,106.6059699
Uỷ ban Nhân dân Phường Bình Hưng Hòa A,10.7944256,106.6100563
Bình Long,10.7968454,106.6141172
AEON Mall,10.8011935,106.6189055
Chợ Sơn Kỳ,10.8058531,106.6219485
Trung tâm Văn hóa Quận Tân Phú,10.810582,106.6269387
Tô Hiệu,10.7721879,106.6259017
Chợ Tân Hòa Đông,10.7598256,106.6266055
Co.opmart Phú Lâm,10.7547535,106.6338946
Cầu Ông Buông,10.7547744,106.6355443
Tân Hóa,10.7547472,106.6390871
Trường Trung học Cơ sở Nguyễn Đức Cảnh,10.753956,106.643982
Trường Tiểu học Phú Thọ,10.7609302,106.6526599
Thái Phiên,10.7563763,106.646034
Lò Siêu,10.7539387,106.64675
Cây Mai,10.7537072,106.6492977
Phạm Phú Thứ,10.7417205,106.6467993
Bưu điện Quận 5,10.7512547,106.6589339
Bưu điện Quận 5,10.7512556,106.6592006
Bệnh viện Chợ Rẫy,10.7545142,106.6590882
Bến xe Chợ Lớn,10.7533307,106.6523292
Bãi Sậy,10.7475387,106.6495243
Tôn Thất Tùng,10.7676758,106.6908667
Đại Thế Giới,10.7505013,106.6680838
Trần Phú,10.7552249,106.6729568
Bệnh viện Nguyễn Trãi,10.7558623,106.6751105
Trạm Xe Bus Tiểu học Trần Quốc Toản,10.7564293,106.673296
An Đông,10.7584663,106.6752258
Bệnh viện Nguyễn Tri Phương,10.7569577,106.6706346
Bệnh viện Nguyễn Tri Phương,10.7567272,106.6704608
Chợ Nhật Tảo,10.7653516,106.667751
Chợ Nhật Tảo,10.764936,106.667633
Học viện Quân y,10.767061,106.6673755
Siêu thị Maximark,10.7771117,106.6807764
Bến xe Miền Đông mới,10.8785678,106.8149833
Bệnh viên Trung Vương,10.7713909,106.6591919
Trạm Xe Bus Cầu Rạch Tôm,10.6727229,106.697892
Trạm Xe Bus Công Ty Seiwa Electric,10.7618335,106.7463565
Trạm Xe Bus Công Ty Nidec,10.7624876,106.7454257
trạm xe bus Công Ty Chubu-Rika,10.7635398,106.7442058
Trạm Xe Bus Công Ty FPT,10.7677446,106.7456706
Trạm Xe Bus Công Ty Kim May Organ,10.7703275,106.7399675
Nhà hát Quân đội,10.8012171,106.6567933
Đường G,10.7165022,106.7276628
Đối diện Trường Tiểu học Bùi Thanh Khiết,10.6882601,106.6826315
Ctyibi,10.7360143,106.7127296
Đại học Khoa học Xã hội và Nhân văn,10.873447,106.8023132
Công an Xã Hiệp Phước,10.6177748,106.7391296
Nguyễn Đức Cảnh,10.7282359,106.7093646
Hưng Vượng,10.7292867,106.7096053
Trạm Xe Bus Cityview Shuttle,10.7744984,106.7047024
Đường Số 6,10.7299253,106.7068066
Trần Quốc Hoàn,10.8039044,106.6640727
Bệnh viện Thống Nhất,10.7923541,106.654221
Chùa Bửu Đà,10.7812597,106.6750984
Ngã ba Chí Hòa,10.7806715,106.6763913
Địa đạo Bến Đình,11.0622228,106.5291107
Tổng Công ty Samco,10.7596994,106.6881941
Trạm Xe Bus Ngã 3 Chợ Đêm,10.6842533,106.5661753
Đường dẫn Cao tốc,10.6842413,106.5765883
Trạm Xe Bus Ngã 4 Chợ Đêm Minh Tâm,10.6878759,106.5850546
Bệnh viện Triều An,10.7396714,106.6168663
Cầu Ông Buông,10.7546049,106.6383005
Bến Xe Huệ Nghĩa,10.7706093,106.6434347
Chùa Huê Lâm,10.7545538,106.641267
Cầu An Lạc,10.7242734,106.6022625
Âu Cơ,10.7738784,106.6474944
Công viên Phú Lâm,10.7475408,106.6263314
Bến xe Hoàng Long,10.8249351,106.7145147
Trạm Xe Bus Cầu Ông Giáo,10.6849584,106.5697228
Tòa án Nhân dân Quận 11,10.7665711,106.6430688
Uỷ ban Nhân dân Quận Bình Thạnh,10.8028571,106.6956903
Lăng Ông Bà Chiểu,10.8024452,106.6971084
Giáo xứ Trung Chánh,10.8608604,106.610839
Cầu Lò Gốm,10.736559,106.6383185
Cầu Lò Gốm,10.7364601,106.6377613
Mai Xuân Thưởng,10.7438664,106.6500284
Trạm Xe Bus Ngã 3 Chợ Đêm,10.6862207,106.5673148
trạm xe bus cầu cái trung,10.7309186,106.5774931
Cao su Vina,10.8609452,106.6477033
Trạm Xe Bus Ngã 4 Bình Điền,10.6967952,106.5973237
Trạm Xe Bus Nguyễn Thị Nhỏ,10.7537733,106.6418183
Đường Số 19,10.7185281,106.7269811
Xây dựng Ngọc Bảo,10.8666673,106.7232534
Trạm Xe Bus Hưng Phú Thịnh,10.7749705,106.6735169
Trạm Xe Bus Hẻm 270 Nguyễn Văn Lượng,10.8385513,106.6722917
thu phí cao tóc,10.682184,106.5569833
Trạm Xe Bus Lê Đại - Huệ Nghĩa,10.7586863,106.6590012
Cây Gõ,10.7553474,106.6434582
Trạm Xe Bus - Bình Thới,10.7646175,106.6453441
Sở Tài nguyên và Môi trường,10.7771741,106.7003573
Bãi hậu cần số 1,10.8230139,106.691356
Cầu Điện Biên Phủ,10.795104,106.7016883
Lăng Ông Bà Chiểu,10.801771,106.6964093
Đại học Bách Khoa,10.772539,106.6576534
CoopMart Phú Thọ,10.7710492,106.653299
Điện lực Phú Thọ,10.7657679,106.6593383
xeĐạiDương,10.771155,106.6543043
Công ty Thuận Kiều,10.8284932,106.6185605
Siêu thị Super Bow,10.8081878,106.6645469
Bến Bạch Đằng,10.774068,106.7066444
Hồ Hào Hớn,10.7624011,106.6905879
Ký túc xá Trần Hưng Đạo,10.7674317,106.6947718
Bệnh viện Quận 1 - CS2,10.7651957,106.6930142
Rạp phim Trần Hưng Đạo,10.7658046,106.6933395
CoopMart Đào Cử,10.4123262,106.9682608
Ngã ba Lê Hùng Yên,10.4037126,106.9586653
Cây Xăng Đức Thanh,10.3953261,106.9166952
Ngã tư 30/4,10.3956078,106.9196661
Ngã ba Đảo Khỉ,10.4074409,106.8986457
Ngã ba Đảo Khỉ,10.4074217,106.8983468
Cây Xăng Đức Thanh,10.3951391,106.9172557
UBND Xã Long Hoà,10.3968598,106.9115462
Ngã tư 30/4,10.3953939,106.9197765
Đình Long Thạnh,10.3857845,106.9115191
Đình Long Thạnh,10.3860456,106.9118457
UBND Xã Long Hoà,10.3972854,106.9113063
CoopMart Đào Cử,10.4122568,106.967843
Ngã ba Lê Hùng Yên,10.4038538,106.9593345
Bệnh viện Việt Pháp,10.7302821,106.7196433
Trạm Xe Bus Miếu Bà Cô,10.7517754,106.7128429
Miếu Bà Cô,10.7518892,106.7125082
Sông Đáy,10.8070148,106.6646627
Trần Đình Xu,10.763058,106.6882141
Trường Tiểu học Lê Lai,10.8127292,106.6224034
Đầu Tây Thạnh,10.8095231,106.6194343
Co.opmart Hậu Giang,10.7497197,106.6428648
Cổng 1 Đầm Sen,10.7651178,106.6421512
Công ty Thoát nước Đô thị,10.9117987,106.5677238
Trạm Xe Bus Nguyễn Kim - Đường 3 Tháng 2,10.7641688,106.6616537
Ông Ích Khiêm,10.7657729,106.645177
Cầu Vĩnh Bình,10.8680424,106.7178325
Bảo Tàng Mỹ Thuật,10.7691968,106.6996581
Tòa nhà Bitexco,10.7706801,106.704864
Lê Thánh Tôn,10.7750733,106.7007175
Ngã tư Trần Huy Liệu,10.793561,106.6791929
Trường Ngô Sỹ Liên,10.8106417,106.6647358
Chợ Trần Văn Quang,10.7783636,106.6453401
Trạm Xe Bus Cầu Sông Chua - Ngã 4 Bà Hom,10.7573835,106.5841125
Nhà văn hóa Cụm An Nhơn Tây,11.0895255,106.5138976
Thư viện Khoa học Tổng hợp,10.7755096,106.6988245
Nguyễn Kim,10.7683789,106.6957937
Trường Trung cấp Xây dựng TP.HCM,10.8189883,106.7010375
City Plaza,10.7645291,106.6874075
Siêu thị Satra Food,10.8133085,106.6970527
Tổng Công ty Samco,10.7594652,106.6877808
Nguyễn Thị Nghĩa,10.768802,106.693696
Đại học Y dược,10.755264,106.6629435
Chợ Nancy,10.7574579,106.6860184
Giao lộ Hàm Nghi - Tôn Thất Đạm,10.7707776,106.7030582
Trần Hưng Đạo,10.7685405,106.695205
Nhà thờ Đồng Tiến,10.7698612,106.666257
Quán Hoàng Ty,10.7754753,106.6640616
Võ Thị Sáu,10.784854,106.691202
Tú Xương,10.7820469,106.6875127
Quán Hoàng Ty,10.775136,106.6640643
Nguyễn Đình Chiểu,10.7666284,106.6781449
Nguyễn Trãi,10.7603133,106.6837907
Uỷ ban Nhân dân Quận 3,10.7832247,106.6861563
Trần Đình Xu,10.7632769,106.6882978
Công viên Lê Văn Tám,10.7874018,106.6926157
Du Lịch Danh Danh,10.7677332,106.6912882
Du Lịch Long Phương,10.7675464,106.6907955
Trung tâm GDTX Quận 4,10.7550796,106.694402
Trạm Xe Bus Trung tâm GDTX Quận 4,10.7553477,106.6941561
Trung tâm Văn hóa Quận 4,10.7600434,106.6960779
Trung tâm Văn hóa Quận 4,10.7598016,106.6959565
Trường Hải Quân,10.7632075,106.782805
Sân Bóng đá Mini - Nguyễn Thị Định,10.7653747,106.7807333
Khu dân cư Phố Đông,10.7677046,106.7780545
Uỷ ban Nhân dân Phường Cát Lái,10.7741963,106.7693459
Chợ Cây Xoài,10.7757626,106.7671146
Đường số 10,10.7775888,106.7644917
Chợ dân sinh - Ký Con,10.76735,106.6982744
Khu chế xuất Tân Thuận,10.7516365,106.7284864
Cao ốc Phúc Yên,10.8260409,106.6309832
Nhà máy Hóa chất Tân Bình,10.830955,106.6333629
Thủy Tạ,10.7688207,106.6378686
Công ty Bao bì nhựa Tân Tiến,10.768417,106.6318209
Agribank,10.7596547,106.6669491
Bệnh viện Nguyễn Tri Phương,10.7554128,106.6697003
Bệnh viện Nguyễn Tri Phương,10.7548075,106.67033
Thư viện Trung tâm Đại học Quốc gia TP.HCM,10.8703992,106.7964782
Khách sạn New World,10.7709974,106.6959714
Bệnh viện 115,10.7726822,106.6651641
Khách sạn New World,10.7712473,106.6957873
Trường Giáo dục Quốc phòng,10.8686482,106.8041373
Trường Trung học Phổ thông Ernst Thälmann,10.7695735,106.6956974
Nút giao Trần Não - Mai Chí Thọ,10.7759747,106.7287728
Khu du lịch Suối Tiên,10.8660108,106.8009432
Suối Tiên,10.8660736,106.802198
Parkson Trường Sơn,10.8097018,106.6649216
Hồ Tùng Mậu,10.7707209,106.7040322
Cục Hải quan Thành phố,10.7706453,106.70577
Cục Hải quan Thành phố,10.7708759,106.7055179
Tòa án Nhân dân Quận 1,10.782509,106.7052866
Trạm đăng kiểm - 432 Lạc Long Quân,10.7704337,106.6450604
Đền thờ Ấn Giáo,10.773505,106.7013922
Bến xe buýt Văn Thánh,10.801256,106.7176167
Big C Green Square,10.8873328,106.7745224
Chùa Từ Quang,10.8854474,106.7722414
Đường số 8,10.8820799,106.7694171
Thánh thất Cao Đài Linh Xuân,10.8799992,106.7676557
Chợ Linh Xuân,10.8776149,106.7664279
Cầu Vượt Linh Xuân,10.8741924,106.7652664
Ngã tư Bình Phước,10.8636835,106.724551
Uỷ ban Nhân dân Phường Hiệp Bình Phước,10.8596639,106.7237283
Trạm y tế Hiệp Bình Phước,10.8559634,106.7223285
Ngã ba Đường Hiệp Bình,10.8526309,106.7207558
Ngã ba Hiệp Bình,10.8487464,106.7183793
Cân Nhơn Hòa,10.8445521,106.7180911
Đường số 4 - Quốc lộ 13,10.8411146,106.7168738
Đường Số 3 - Quốc lộ 13,10.8387559,106.7149185
Cầu Ông Dầu,10.8356189,106.7138147
Trạm xăng dầu - 173-175 Quốc lộ 13,10.8329397,106.7139101
Uỷ ban Nhân dân Phường Hiệp Bình Chánh,10.830029,106.7140456
Cổng vào Bến xe Miền Đông,10.8165864,106.7111727
Ngã tư Nguyễn Xí,10.81255,106.7091672
Ngã tư Chu Văn An,10.8097232,106.7090749
Cầu Đinh Bộ Lĩnh,10.8068741,106.709341
Trạm xăng dầu Đinh Bộ Lĩnh,10.804432,106.709386
Chợ Hàng Xanh,10.8027818,106.7105476
Trường Tiểu học Hồng Hà,10.7973383,106.71062
Nhà thờ Thị Nghè,10.7937049,106.7081372
Thảo Cầm Viên,10.7905929,106.7052576
Đài Truyền hình Thành phố,10.7872273,106.7021055
Đinh Tiên Hoàng,10.7862677,106.7014207
Phùng Khắc Khoan,10.7839711,106.6986809
Hồ Con Rùa,10.7832195,106.6963962
Sân Phan Đình Phùng,10.7812378,106.6945421
Bảo tàng Chứng tích Chiến tranh,10.7790915,106.6925541
Trần Quốc Thảo,10.7779278,106.6914077
Đại học Mở Thành phố,10.7765055,106.6900924
Cách mạng Tháng Tám,10.7734306,106.6890602
Tôn Thất Tùng,10.7708534,106.6867042
Bệnh viện Từ Dũ,10.7689054,106.6848383
Nhà sách Minh Khai,10.7662198,106.6822967
Công viên Âu Lạc,10.7650192,106.6807248
Ngã tư Trần Bình Trọng,10.7638338,106.678868
Ngã tư Lê Hồng Phong,10.7625574,106.6769158
Chợ Lê Hồng Phong,10.7644045,106.6757324
Hòa Hảo,10.763246,106.6711831
Trường Khiếm thị Nguyễn Đình Chiểu,10.7608324,106.6695123
Nguyễn Tiểu La,10.7598222,106.6682188
Ngã tư Ngô Quyền,10.7592551,106.6652398
Bệnh viện Răng Hàm Mặt,10.7583294,106.660802
Tạ Uyên,10.7571702,106.6551002
Chợ Thiếc,10.7576534,106.6573483
Khách sạn Hoàng Hậu,10.7570105,106.6551246
Bệnh viện Chợ Rẫy,10.7580524,106.6602285
Chung cư 155 Nguyễn Chí Thanh,10.7592716,106.6659821
Trường Khiếm thị Nguyễn Đình Chiểu,10.7606196,106.6695472
Hòa Hảo,10.7629361,106.6711586
Chợ Lê Hồng Phong,10.764707,106.6753709
Phạm Viết Chánh,10.7661864,106.6825413
Bệnh viện Từ Dũ,10.7687115,106.684986
Tôn Thất Tùng,10.7718402,106.6879277
Sở Y tế Thành phố,10.7741294,106.6900059
Nhà Văn hóa Lao động,10.7770334,106.6927845
Pasteur,10.7810063,106.6963991
Mạc Đỉnh Chi,10.7841809,106.6994719
Nhà thờ Mạc Ti Nho,10.7863396,106.7012507
Thảo Cầm Viên,10.7896064,106.7045903
Cầu Thị Nghè,10.7907001,106.7056329
Nhà thờ Thị Nghè,10.7934888,106.7082002
Trung tâm Dưỡng lão,10.7965675,106.7105532
Trường Trung học Phổ thông Gia Định,10.7989338,106.7111815
Ngã ba Hàng Xanh,10.803245,106.7115312
Đài Liệt sĩ,10.8087344,106.7119251
Co.opmart,10.8107732,106.712439
Trường Tiểu học Bình Triệu,10.8289282,106.7143371
Trạm xăng dầu - 206 Quốc lộ 13,10.8326872,106.714138
Cầu Ông Dầu,10.8360741,106.7139914
Đường Số 3 - Quốc lộ 13,10.8387634,106.7152725
Đường Số 4 - Quốc lộ 13,10.841058,106.7171468
Ngã ba Hiệp Bình,10.8488972,106.7186935
Ngã ba Đường Hiệp Bình,10.852923,106.7212457
Uỷ ban Nhân dân Phường Hiệp Bình Phước,10.8587104,106.7236422
Ngã tư Bình Phước,10.863854,106.7247816
Cầu vượt Linh Xuân,10.8743701,106.7656683
Chợ Linh Xuân,10.8774138,106.7665955
Thánh thất Cao Đài Linh Xuân,10.880146,106.7681113
Đường số 8 - 202-204 Quốc lộ 1K,10.8817828,106.769448
Chùa Từ Quang,10.8854136,106.7725475
Big C Green Square,10.8872531,106.7748953
Trường Kinh tế Công nghệ,10.7596271,106.6679216
Nhà máy Bia Sài Gòn,10.7591294,106.6645151
Lý Thường Kiệt,10.7584565,106.6620152
Chợ Thiếc,10.7574911,106.6574386
Bệnh viện Chợ Rẫy,10.7554901,106.6583269
Hải Thượng Lãn Ông,10.7509397,106.658553
Chợ Kim Biên,10.7511239,106.6550492
Chu Văn An,10.7501907,106.6524502
Chợ Kim Biên,10.750686,106.6550066
Bệnh viện Chợ Rẫy,10.7570904,106.6583598
Cầu vượt Linh Xuân,10.874442,106.7620933
Cầu vượt Sóng Thần,10.8740766,106.7464994
Chợ Tam Hải,10.8733373,106.7442409
Hồ bơi,10.87216,106.7397521
Chợ Tam Bình,10.8708706,106.7345388
Chợ Đầu mối Nông sản Thủ Đức,10.8681598,106.7290625
Ngã ba Mũi tàu Đường Gò Dưa,10.8668576,106.7273824
Chợ Đầu mối Nông sản Thủ Đức,10.8682455,106.7300739
Chợ Tam Bình,10.8708343,106.7353288
Hồ bơi - 376 Quốc lộ 1,10.8717377,106.7396018
Chợ Tam Hải,10.8729472,106.744198
Cầu vượt Linh Xuân,10.873933,106.7625318
Ngã ba Nguyễn Cửu Vân,10.7950076,106.709413
Lê Hồng Phong,10.7612431,106.6766547
Trường Trung học Phổ thông Gia Định,10.7997458,106.7110735
Trạm y tế Phường Hiệp Bình Phước,10.8557053,106.7224888
Ngã ba Củ Cải,10.861965,106.6027908
Cây xăng Củ Cải,10.8597995,106.6043309
Trường Trung học Cơ sở Tân Xuân,10.8667674,106.5994072
Ngã ba Bùi Môn,10.8713343,106.5961498
Sài Gòn Viễn Đông,10.8750477,106.5935394
Ngã tư Giếng Nước,10.8775297,106.5917445
Cây xăng Xuyên Á,10.8810846,106.5892607
Bến xe An Sương,10.846069,106.6133899
Ngã tư Hóc Môn,10.8846778,106.5867538
Dân Thắng,10.8886008,106.5839954
Ngã ba Lam Sơn,10.893179,106.5807826
Doanh trại Quân đội - Quốc lộ 22,10.8956228,106.5790708
Công ty Sakos,10.9036968,106.5734146
Cây xăng Hoàng Anh 2,10.9056719,106.5720129
Cầu An Hạ,10.9169424,106.5641114
Công ty Fujifilm,10.9199923,106.5620026
Bệnh viện Xuyên Á,10.9267951,106.5572541
Chợ chiều Tân Phú Trung,10.9312899,106.5537914
Mũi tàu Tỉnh lộ 2,10.9350295,106.549524
Nhà thờ Bắc Đoàn,10.9379527,106.5434457
Trường Trung học Cơ sở Tân Phú Trung,10.939436,106.5403874
Nhà thờ Sơn Lộc,10.9418876,106.5353796
Chùa Pháp Hạnh,10.9447744,106.5294141
Ngã tư Quán đôi,10.9471534,106.5245843
Hồng Đào,10.9500282,106.5203795
Trường Mầm non Tân Thông Hội 1,10.9528693,106.5162524
Công ty Sài Gòn Cáp,10.9570432,106.5099633
Nhà Thờ Tân Thông,10.9594782,106.5051263
Điện lực Củ Chi - Ngã ba Việt Kiều,10.961309,106.5016239
Xóm Huế,10.963471,106.4978577
Trường Trung học Cơ sở Củ Chi,10.967057,106.488997
Bò tơ Xuân Đào,10.9657898,106.4930854
Quán Tư Râu,10.9655483,106.4929004
Công ty Sài Gòn Cáp,10.9567705,106.5096752
Xóm Huế,10.9633576,106.4974152
Điện lực Củ Chi - Ngã ba Việt Kiều,10.9601361,106.5031674
Trạm trung chuyển Hàm Nghi,10.7710925,106.6999191
Trần Quốc Toản,10.7869475,106.6871356
Cây xăng Quân khu 7,10.7996655,106.6688819
Quán Vườn Dừa,10.8035874,106.6649186
Chợ Cũ,10.7709914,106.7030831
Trường Cao đẳng Kỹ Thuật Cao Thắng,10.7710549,106.7018406
Trần Đình Xu,10.762287,106.6902514
Ngô Quyền,10.7524951,106.6662
Rạp Đồng Tháp,10.7539983,106.6759559
An Bình,10.7529839,106.672795
Triệu Quang Phục,10.7520759,106.6605949
Lương Nhữ Học,10.7529609,106.6603863
Ngô Quyền,10.7540044,106.6668409
Trần Bình Trọng,10.7549219,106.6800086
Phòng Cảnh sát Phòng cháy Chữa cháy,10.760673,106.6890393
Nam Kỳ Khởi Nghĩa,10.7708611,106.7015057
Chợ Cũ,10.7708361,106.7019523
Highlands Coffee,10.7221546,106.7128765
Đường N,10.7235946,106.7163358
Cửa hàng Chuồn chuồn Đỏ,10.7219353,106.7131804
Family Mart,10.7235283,106.7152963
Công viên Mỹ Kim,10.7243628,106.7122942
Crescent Mall,10.7288715,106.7197365
Nguyễn Văn Linh,10.7295588,106.70848
Trần Văn Trà,10.7243437,106.7213915
Đường N,10.7236531,106.7164392
Sen Vàng,10.723337,106.7155653
Phạm Thái Bường,10.7273248,106.7094853
Cửa Hàng Paris Baguette,10.7307936,106.7066743
Trần Văn Trà,10.7240314,106.7211974
Hà Huy Tập,10.7268583,106.7085654
Hà Huy Tập,10.7267096,106.7086894
Trường Quốc tế Nam Sài Gòn,10.7227283,106.7100127
Nhà Mẫu Phú Mỹ Hưng,10.7273892,106.7267166
Petroland,10.7290741,106.7234423
Mỹ Thái 2,10.7210011,106.7267533
Ban Quản lí Khu Nam,10.7295735,106.7271231
Nam Viên,10.7181738,106.7285012
Đại Minh,10.7301557,106.7221202
Đường B,10.7305341,106.7249543
Đường Số 17,10.7215854,106.7271655
Trường Nam Sài Gòn,10.7251714,106.7241841
Trường Nam Sài Gòn,10.7250551,106.723877
Phố Tiểu Nam,10.7222353,106.7295614
Đường B,10.7306097,106.7250678
Ban Quản Lí Khu Nam,10.7296433,106.7269463
UBND Tân Phú,10.7324455,106.7256476
Mỹ Khang,10.7155836,106.7300972
Nhà Mẫu Phú Mỹ Hưng,10.7273616,106.7263939
Petroland,10.7289706,106.7236035
Đường Số 20,10.7186364,106.7297287
Mỹ Thái 2,10.7208321,106.7265133
Đại học Luật,10.7672408,106.7060766
Siêu thị Điện máy,10.7539507,106.6694203
Đại học HUTECH,10.8008422,106.7142581
Nhà văn hóa Quận 11,10.7638188,106.6493551
Bệnh viện Phạm Ngọc Thạch,10.7559161,106.6645359
Bệnh viện Đại học Y dược,10.7556384,106.6646794
Nhà thi đấu Phú Thọ,10.7674497,106.6590935
Đại học Văn Hiến (Cơ sở Hùng Hậu),10.7090759,106.6429353
Cầu Chợ Đệm,10.693105,106.5807655
Kim Hằng,10.7013991,106.6317398
Trường Trung học Phổ thông Lê Quý Đôn,10.7798691,106.694576
Đại học Tôn Đức Thắng,10.733057,106.6990533
Đại Học RMIT,10.728961,106.6950895 
Ngã tư An Nhơn,10.8415871,106.6764039 
Ngã tư Thủ Đức,10.8483995,106.7730954
Ngã tư Tây Hòa (RMK),10.8254524,106.7599977
Đối diện Uỷ ban Nhân dân Quận 9 cũ,10.8407575,106.7687314
Bê tông Hải Âu,10.8442279,106.7707187
Xi măng Hà Tiên,10.8203721,106.7580609
Ngã tư Bình Thái,10.8349107,106.7653111 
Chợ Gò Công,10.8420169,106.8276639
Chợ Gò Công,10.8421676,106.8280257
Tòa nhà S6.06,10.8428791,106.8389656
Khu du lịch Văn Thánh,10.7995636,106.7174018
Cầu Sài Gòn,10.7984179,106.7193338
Cầu Bà Lớn,10.7116646,106.6450562
Kumho Samco Buslines,10.7678614,106.6916462
Hahn Café,10.7680298,106.6921517
UBND Quận Tân Phú,10.7855579,106.6365124
Ngã tư Bảy Hiền,10.7938369,106.6514195
Ngã tư Bảy Hiền,10.7941229,106.6512159
Gò Mây,10.8145254,106.6054087
Nguyễn Đình Chiểu,10.7808225,106.6914392
CoopMart Nguyễn Đình Chiểu,10.7807579,106.6921965
Khu du lịch Văn Thánh,10.800262,106.7172175
Ngã sáu Phù Đổng,10.7708507,106.6938218
Nguyễn Thị Nghĩa,10.7708393,106.6936333
Công viên Cầu Sài Gòn,10.7989201,106.7227737
Nguyễn Trãi,10.7710326,106.6927759
Chợ Phường 25,10.8082939,106.7146663
Trường Trung học Cơ sở Lê Quý Đôn,10.7788668,106.69357
Khách sạn Golden,10.7731615,106.6960137
Công ty Fujifilm,10.9233307,106.5592754
Trung tâm Văn hóa Củ Chi,10.9691673,106.4876463
Công ty Lộc Ích,10.8276466,106.6034547
Cát Lái,10.8029737,106.7479175
Trường Trung học Phổ thông Ernst Thälmann,10.7687864,106.6959537
Bệnh viện Răng Hàm Mặt,10.7639299,106.6917049
Bệnh viện Chấn thương Chỉnh hình,10.7545827,106.6781761
Rạp Đống Đa,10.7535654,106.6742576
Đại học Sư phạm Thể dục Thể thao,10.75335,106.663457
Rạp Đồng Tháp,10.7538131,106.6759221
Bệnh viện Răng Hàm Mặt,10.7636355,106.6916529
Ký túc xã Trần Hưng Đạo,10.7671569,106.6947089
Trạm trung chuyển Hàm Nghi,10.7709376,106.700515
Bưu điện Thành phố,10.7806054,106.7006741
Sở Công Thương,10.784299,106.6964768
Chợ Tân Định,10.7904513,106.6887854
Cầu Kiệu,10.7936117,106.6847791
Chợ Phú Nhuận,10.7950253,106.6830314
Cầu vượt Ngã sáu Gò Vấp,10.8245516,106.6812196
Cầu vượt Ngã sáu Gò Vấp,10.829166,106.6786557
Ngã tư Phan Văn Trị,10.832444,106.6767129
Ngã tư An Nhơn,10.84218,106.6767484
Nhà hàng Bến Xưa,10.852622,106.6791956
Đình thần Giao Khẩu,10.8652323,106.6803857
Cây xăng Tài Lộc,10.8683124,106.6782224
Vườn kiểng Quang Dũng,10.8713056,106.6769474
Gara Thanh Hậu,10.8753576,106.6769293
Chợ Thạnh Xuân,10.8784944,106.6781955
Trường Cao đẳng Điện lực,10.8808888,106.6792137
Trường Mầm non Hoa Đỗ Quyên,10.8845895,106.68131
Cây xăng Thanh Bình,10.8863295,106.6831419
Cầu Ông Dung,10.888795,106.6851783
Cầu Phú Long,10.8921392,106.6870168
Chùa Báo Ấn,10.8949158,106.6886265
Chợ Đường,10.8976777,106.6890857
Thạnh Xuân,10.8932948,106.6733033
Chợ Đường,10.8975133,106.6890441
Chùa Báo Ấn,10.8948963,106.6885147
Cầu Phú Long,10.8925376,106.6872032
Cầu Ông Dung,10.8889446,106.6851314
Cây xăng Thanh Bình,10.8862736,106.6828655
Trường Mầm non Hoa Đỗ Quyên,10.8840411,106.680837
Trường Cao đẳng Điện lực,10.8810848,106.679219
Chợ Thạnh Xuân,10.8789423,106.6782775
Gara Thanh Hậu,10.8750523,106.6767753
Vườn kiểng Quang Dũng,10.8719552,106.6768332
Cây xăng Tài Lộc,10.8680621,106.678314
Đình thần Giao Khẩu,10.86492,106.6803678
Nhà hàng Bến Xưa,10.8534696,106.6791395
Cầu An Lộc,10.84879,106.6785445
Bưu điện An Nhơn,10.8439719,106.6772363
Đài Liệt sĩ,10.8395033,106.675739
Trường Vinhempic,10.8369333,106.6754577
Cư xá Lam Sơn,10.8349731,106.6755864
Ngã tư Phan Văn Trị,10.8316752,106.6769212
Bệnh viện Quân y 175,10.8200217,106.6787507
Chợ Tân Sơn Nhất,10.8167716,106.6786775
Đầu Công viên Gia Định,10.8133403,106.6775919
Tháp nước,10.8023965,106.6763886
Trường Cao đẳng Kinh tế Đối ngoại,10.7984236,106.6806005
Chợ Phú Nhuận,10.7952238,106.6826399
Cầu Kiệu,10.7931151,106.6852803
Chợ Tân Định,10.7890413,106.6904556
Trần Cao Vân,10.7840612,106.6966375
Lê Duẩn,10.7819798,106.6990284
Bệnh viện Nhi đồng 2,10.7793394,106.7018959
Nhà hát Thành phố,10.7778905,106.7035256
Công trường Mê Linh,10.7759881,106.7056045
Biti's,10.8382104,106.6183969
Bến xe An Sương,10.8452543,106.6133452
Ngã ba Út Tịch,10.801015,106.6566148
Công viên Hoàng Văn Thụ,10.8004725,106.6635553
Tòa án Nhân dân Thành phố,10.7759926,106.6987823
Trường Cao đẳng Kỹ thuật Cao Thắng,10.771523,106.700882
Cổng ra Bến xe Miền Đông 1,10.8137949,106.7128124
Cân Nhơn Hòa,10.8431465,106.7183139
Hồ bơi - 784 Quốc lộ 13,10.8610579,106.7245165
Hồ bơi Mèo Mun,10.8613012,106.7243946
Nguyễn Thị Minh Khai,10.7750881,106.6902671
Trung ương Hội Chữ thập Đỏ Thành phố,10.7676768,106.6836448
Trường Trung học Phổ thông Chuyên Lê Hồng Phong,10.7644625,106.6821634
Cầu Đen,10.7998702,106.7339353
Thảo Điền,10.8008158,106.7386007
Ga An Phú,10.8016372,106.7431871
Cát Lái,10.8025627,106.748013
Xi măng Hà Tiên - Trạm thu phí,10.8191785,106.7583252
Ngã tư Tây Hòa (RMK),10.8259513,106.7609095
Trạm Xây dựng - 354A Xa lộ Hà Nội,10.8301673,106.7631907
Khu Quản lý Giao thông Đô thị Số 2,10.8330527,106.764804
Tu viện Quảng Đức,10.8388052,106.7667212
Công an Thành phố Thủ Đức,10.8497868,106.7750322
HUTECH - Khu Công nghệ Cao,10.8562647,106.785349
Đại học Nông Lâm,10.8669653,106.7910918
Đại học Nông Lâm,10.8668341,106.790324
Khu Công nghệ cao Quận 9,10.8599964,106.7908142
Xa lộ Hà Nội,10.8586682,106.7886396
Làng Thiếu niên Thủ Đức,10.8497426,106.7586991
Trường Trung học Phổ thông Thủ Đức,10.8482033,106.7596239
Công ty Truyền tải Điện 4,10.8311989,106.7632351
Ga An Phú,10.8021132,106.7430936
Thảo Điền,10.8012876,106.7387515
Cầu Sài Gòn,10.7989195,106.719624
Đại học HUTECH,10.8012487,106.7148097
Trạm xăng dầu Điện Biên Phủ,10.8016703,106.7128909
Trường Trung học Phổ thông Chuyên Lê Hồng Phong,10.7645717,106.6818873
Đại học Khoa học Tự nhiên,10.7633489,106.6823627
Chợ Bầu Sen,10.7594598,106.6787769
Huỳnh Mẫn Đạt,10.7580434,106.6753081
Chợ An Đông,10.7575218,106.673536
Hùng Vương Plaza,10.7552162,106.6609608
Dương Tử Giang,10.754153,106.6555509
Tháp Mười,10.7503061,106.6530962
Trường Trung học Phổ thông Trần Khai Nguyên,10.7587191,106.6692364
Đại học Kinh tế,10.7614409,106.6686142
Trường Trung học Cơ sở Hoàng Văn Thụ,10.7630881,106.6682507
Bệnh viện Bình Dân,10.7744171,106.6788469
Siêu thị Maximark,10.7763561,106.6805922
Ga Sài Gòn,10.7822879,106.6779165
Nhà thờ Dòng Chúa Cứu thế,10.7808039,106.6812997
Trần Quốc Thảo,10.7845221,106.6829536
Trần Quang Diệu,10.7883905,106.6782619
Bệnh viện An Sinh,10.7909745,106.6781
Ngã tư Nguyễn Văn Trỗi,10.7929912,106.6779668
Ngã ba Phạm Ngũ Lão,10.8208396,106.6840333
Trường Đại học Công nghiệp,10.8228183,106.6855887
Uỷ ban Nhân dân Phường 5,10.8255046,106.6882739
Trường Đại học Công nghiệp,10.8227583,106.685291
Ngã ba Phạm Ngũ Lão,10.8209346,106.6838843
Ngã tư Nguyễn Văn Trỗi,10.7927182,106.6779248
Bệnh viện An Sinh,10.7911711,106.6780361
Nhà thờ Dòng Chúa Cứu thế,10.7806708,106.6811212
Nguyễn Thông,10.7813614,106.6795273
Ga Hòa Hưng,10.7815165,106.6784176
Rạch Bùng Binh,10.7807253,106.678863
Vòng xoay Dân Chủ,10.778608,106.6811087
Bệnh viện Bình Dân,10.7747426,106.6789973
Học viện Hành chính Quốc gia,10.7734262,106.6769201
Học viện Hành chính Quốc gia,10.7726376,106.6756596
Nhà thờ Vinh Sơn,10.7705822,106.6722174
Bệnh viện Nhi Đồng 1,10.7696422,106.6704658
Học viện Quân y,10.7668002,106.6672262
Đại học Kinh tế,10.7610675,106.6685227
Ngô Gia Tự,10.758785,106.668054
Trung tâm Giáo dục Thường xuyên,10.7573534,106.6669947
Tùng Thiện Vương,10.7445746,106.6568379
Siêu thị Nguyễn Kim - CMC Tân Bình,10.781002,106.6552549
Khách sạn Tân Sơn Nhất,10.7998508,106.6709416
Cổng ra - Bến xe Miền Đông 3,10.8116472,106.7125132
Cổng ra - Bến xe Miền Đông 2,10.8123148,106.7125732
Ngã tư Bình Triệu,10.8260563,106.7156157
Chùa Ưu Đàm,10.8306327,106.7247451
Cầu Gò Dưa,10.8398164,106.7405593
Công an Phường Linh Đông,10.8448054,106.7496364
Chợ Chiều - Xa lộ Hà Nội,10.8534343,106.7805143
Cầu vượt Trạm 2,10.8636283,106.7977191
Nghĩa trang Liệt sĩ Thành phố,10.8735896,106.8094987
Đại học Khoa học Tự nhiên,10.8746139,106.8062491
Đại học An ninh Nhân dân,10.8716254,106.8067183
Cầu vượt Trạm 2,10.8639288,106.7974502
Nhà Thiếu nhi Thủ Đức,10.8505055,106.7668515
Chợ Thủ Đức,10.8503348,106.75405
Cầu Ngang,10.8471732,106.7516351
Công an Phường Linh Đông,10.8451112,106.7497939
Trạm xăng 27-7,10.8416983,106.7466137
Trường Cao đẳng Vinatex,10.8408406,106.7445214
Nút giao Linh Đông - Phạm Văn Đồng,10.8407409,106.7426149
Chùa An Lạc,10.8370777,106.7321579
Cá sấu Hoa Cà,10.8335696,106.7278234
Đường số 20,10.8281975,106.7209309
Ngã tư Bình Triệu,10.8265688,106.7159116
Ngã tư Phú Nhuận,10.7993212,106.6792136
Công an Quận Phú Nhuận,10.7997243,106.6743351
Vòng xoay Lăng Cha Cả,10.7987447,106.6591548
Công an Quận Tân Bình,10.7970936,106.6574889
Trường Phạm Ngũ Lão,10.7959724,106.6540259
Trường Trung học Phổ thông Nguyễn Thái Bình,10.7792841,106.6555879
Cây Gõ,10.7542254,106.6443594
Cư xá Phú Lâm,10.7515324,106.6308629
Vòng xoay Kinh Dương Vương,10.7447814,106.6224667
Bến xe Miền Tây,10.741968,106.6191037
428 Kinh Dương Vương,10.7413948,106.6184129
Bệnh viện Triều An,10.7397045,106.616375
Hàng Dương,10.7352315,106.6131235
Hoa Hồng - 620 Kinh Dương Vương,10.7290151,106.6082109
An Lạc - 676 Kinh Dương Vương,10.727409,106.6057877
Thời trang - 724 Kinh Dương Vương,10.7254535,106.6029909
Hưng Nhơn,10.7122506,106.5988222
Dương Đình Cúc,10.7070792,106.598118
Nguyễn Hữu Trí,10.69614,106.5964755
An Phú Tây,10.6874171,106.5935859
Công ty Thiên Lộc,10.6845455,106.5921749
Văn phòng Ấp 5,10.6813944,106.5889831
Ô tô Hải Âu,10.6765029,106.5831573
Bùi Thanh Khiết,10.6739642,106.5803988
Trịnh Như Khuê,10.6704702,106.5766863
Trường Trung cấp Nghề Trần Đại Nghĩa,10.6688331,106.574627
Chợ Bình Chánh,10.6664189,106.5716313
Trịnh Như Khuê - C10/13 Đinh Đức Thiện,10.6632617,106.5713065
Bờ Kinh,10.6609465,106.5763306
Điện máy Lộc Đức,10.6588462,106.5798726
Công ty Tia Sáng,10.657199,106.5826118
Hương lộ 11 - Đinh Đức Thiện,10.6560103,106.5845863
Chùa Liên Hoa,10.6561222,106.5860291
Xã Tân Quý Tây,10.6570604,106.5882585
Đình Phước Bình,10.6584624,106.591513
Minh Quân,10.6600882,106.5952178
Công ty Thông Hương,10.6616341,106.5987869
Trường Mầm non Bông Sen,10.6619486,106.6006637
Trường Trung học Cơ sở Tân Quý Tây,10.6599584,106.6046013
Chợ Hưng Long,10.6587753,106.6069026
Phòng khám Thanh Lịch,10.6571031,106.610279
Trạm Xăng dầu Mười Vũ,10.6556012,106.6133089
Trạm Y tế Xã Hưng Long,10.6538024,106.616823
Đường liên ấp 3-4-5,10.6525711,106.6193109
Uỷ ban Nhân dân Xã Hưng Long,10.6511958,106.6220209
Ấp 2 - C6/32 (C7/32) Hương lộ 11,10.6489691,106.6264325
Hội quán Thanh Niên,10.6475282,106.6291247
Tân Liễu,10.6456464,106.6326655
Hốc Hữu,10.6440353,106.6356465
Trạm xăng Hòa Hiệp,10.6418664,106.639661
Nguyễn Văn Thời,10.6406046,106.6419712
Nguyễn Văn Long,10.6393733,106.6443214
Hưng Long,10.6373473,106.6478888
Nguyễn Văn Long,10.6394201,106.6444309
Nguyễn Văn Thời,10.6409394,106.6416157
Trạm xăng Hòa Hiệp,10.6420749,106.6395165
Hộc Hữu,10.6439567,106.6361047
Tân Liễu,10.6459878,106.6322914
Hội quán Thanh Niên,10.6474804,106.6294925
Ấp 2 - C5/31D Hương lộ 11,10.6492076,106.6261946
Uỷ ban Nhân dân Xã Hưng Long,10.6513666,106.6219637
Đường liên ấp 3-4-5,10.652566,106.6195445
Trạm Y tế Xã Hưng Long,10.653968,106.6167835
Trạm Xăng dầu Mười Vũ,10.6558412,106.613009
Phòng khám Thanh Lịch,10.6572644,106.6102072
Chợ Hưng Long,10.6590094,106.6067331
Trường Trung học Cơ sở Tân Quý Tây,10.6600214,106.60475
Trường Mầm non Bông Sen,10.6621062,106.6005837
Công ty Thông Hương,10.6618237,106.598899
Minh Quân,10.6601573,106.5951038
Đình Phước Bình,10.6586805,106.5917235
Xã Tân Quý Tây,10.657293,106.5884923
Chùa Liên Hoa,10.6562131,106.5859634
Đinh Đức Thiện - Hương lộ 11,10.6561058,106.5846426
Công ty Tia Sáng,10.6572179,106.5828087
Điện máy Lộc Đức,10.6587413,106.5802397
Bờ Kinh,10.6608832,106.5766556
Trịnh Như Khuê - 13/11 Đinh Đức Thiện,10.6633327,106.5713941
Chợ Bình Chánh,10.666247,106.5717579
Trường Trung cấp Nghề Trần Đại Nghĩa,10.6687,106.5748035
Trịnh Như Khuê,10.6701589,106.5766192
Ô tô Hải Âu,10.6756263,106.5824666
Văn phòng Ấp 5,10.6814403,106.5892455
Công ty Thiên Lộc,10.6843616,106.5922838
An Phú Tây,10.6868002,106.5937502
Nút giao Bình Thuận,10.6917934,106.5954269
Nguyễn Hữu Trí,10.6970726,106.5970141
Dương Đình Cúc,10.7063079,106.5982258
Hưng Nhân,10.7119534,106.5993829
Hàng Dương - 703 Kinh Dương Vương,10.7281812,106.6075518
Ủy ban,10.7300438,106.6102699
Lâm Thành,10.7341301,106.6128898
Tên Lửa - 251 Kinh Dương Vương,10.7375156,106.6149238
Bến xe Miền Tây,10.7410554,106.6185264
Hồ bơi Phú Lâm,10.7488986,106.6279878
Cư xá Phú Lâm,10.7511668,106.6308996
Vòng xoay Phú Lâm,10.7532397,106.6335908
ACB Hồng Bàng,10.7542472,106.6412602
Chùa Nam Phổ Đà,10.7537889,106.6460731
Lò Siêu,10.753545,106.648184
Trần Quốc Thảo,10.7822617,106.6862956
Co.opmart Hậu Giang,10.7498466,106.6431691
Ngã bảy Lý Thái Tổ,10.768772,106.6752188
Cầu Điện Biên Phủ,10.7951078,106.702508
Trống Đồng,10.7730138,106.6906711
Bệnh viện Mắt - Bình Dân - Da Liễu,10.7763589,106.6845074
Bệnh viện Thống Nhất,10.7926454,106.6539826
Trung tâm Văn hóa Quận 12,10.854616,106.6078759
Trường Đại học Ngoại ngữ - Tin học Thành phố,10.8645359,106.6009609
Ngã ba Hồng Châu,10.8997204,106.5762073
Chợ Củ Chi,10.9705549,106.4823893
Ngã tư Quán đôi,10.9479046,106.5229208
Trường Trung học Cơ sở Tân Phú Trung,10.9391506,106.5402688
Chợ chiều Tân Phú Trung,10.931899,106.5528463
Cầu An Hạ,10.916243,106.5642265
Ngã ba Hồng Châu,10.8996315,106.5758517
Ngã ba Lam Sơn,10.892298,106.5809665
Ngã tư Hóc Môn,10.8833405,106.5872451
Ngã tư Giếng Nước,10.877076,106.5916807
Ngã ba Bùi Môn,10.8699077,106.5967356
Ngã ba Củ Cải,10.8607318,106.6032598
Công viên Lê Thị Riêng,10.7862125,106.6657729
Công trường Dân Chủ,10.7782481,106.6807163
Trống Đồng,10.7723938,106.6914603
Ngã năm Liệt sĩ,10.8120692,106.7105932
Đại học Ngoại Thương,10.8048295,106.715886
Nhà khách Chỉnh phủ,10.7659611,106.6802642
Lê Đại Hành,10.7617932,106.6560349
Tạ Uyên,10.7604789,106.653603
Xóm Đất,10.7586896,106.6502387
Hàn Hải Nguyên,10.7573682,106.6478545
Vòng xoay Cây Gõ,10.7552192,106.6438767
Xóm Đất,10.7584836,106.6502831
Tạ Uyên,10.7603844,106.6537796
Nhà khách Chính phủ,10.7665837,106.67776
Ngã sáu Cộng Hòa,10.7658065,106.6802192
Trường Trung học Phổ thông Năng khiếu Thể dục Thể thao Nguyễn Thị Định,10.7247725,106.6228793
Chợ Kiến Đức,10.7157926,106.619
Nhựa Chợ Lớn,10.7150313,106.6189082
Bến Phú Định,10.7112345,106.6186254
Chùa Viên Giác,10.7132714,106.616681
Nhựa Long Thành,10.7181429,106.6136534
Võ Văn Kiệt,10.7206369,106.6120773
Chùa Sùng Quang,10.7238249,106.6100693
Chợ Khu phố 2,10.7259418,106.6087568
Big C Hồ Học Lãm,10.7320768,106.6048819
Hẻm Sinco Hồ Học Lãm,10.734595,106.603392
Trạm điện Phú Lâm,10.737687,106.6014604
Công ty Pouyuen,10.7474814,106.5952742
Nhà sách Tân Tạo,10.755131,106.5923253
Chung cư Tân Mai,10.7630099,106.5909052
Hương lộ 2,10.7684422,106.591178
Bệnh viện Bình Tân - 927 Hương lộ 2,10.7683002,106.5948133
Bệnh viện Bình Tân - 863 Hương lộ 2,10.7672463,106.5974713
Bệnh viện Bình Tân - 809 Hương lộ 2,10.7648506,106.602977
Thạch cao Thanh Tài,10.7661998,106.6058376
Trường Bình Trị,10.7682133,106.6102608
497 Hương lộ 2,10.7717392,106.6175117
Chợ Ngã tư Bốn Xã,10.7732708,106.6205989
Ngã tư Bốn Xã,10.7731159,106.6229205
Ngã tư Hòa Bình,10.7700443,106.63249
Ngã tư Hòa Bình,10.7669975,106.6416186
Đầm Sen,10.7671983,106.6411708
Đầm Sen,10.7692686,106.6370296
Chùa Huệ Quang,10.7695214,106.6345877
Ngã tư Hòa Bình,10.7699977,106.6328102
Trung tâm Mua sắm Hòa Bình,10.7713179,106.6289879
Tô Hiệu,10.7722481,106.6261365
Chợ Ngã tư Bốn Xã,10.7732127,106.620291
Trường Tiểu học Bình Trị 1,10.7678515,106.6092137
Hương lộ 2,10.7667017,106.6067411
Hẻm 814 Hương lộ 2,10.766863,106.5995433
Sửa xe Quyết,10.7682846,106.5951925
990 Hương lộ 2,10.769189,106.5932065
Nghĩa trang Bình Tân,10.7685561,106.5909108
Bà Hom,10.7624268,106.5907228
Khu công nghiệp Tân Tạo,10.7528176,106.592469
Công ty Pouyuen,10.7467616,106.5953647
Công ty Hai Thành,10.7434454,106.5974742
Công an Quận Bình Tân,10.7361525,106.601993
Big C Hồ Học Lãm,10.7311417,106.6053302
Ngã tư An Lạc,10.7287167,106.6068798
Chợ Khu phố 2,10.7262228,106.6084673
Chùa Sùng Quang,10.7240254,106.6098012
Khu dân cư Hương lộ 5,10.7207752,106.6118671
Nhựa Long Thành,10.7181643,106.6135159
Chùa Viên Giác,10.712784,106.6168696
Bến Phú Định,10.7113985,106.6187224
Nhựa Chợ Lớn,10.7147611,106.6189948
Chợ Kiến Đức,10.7156964,106.6190574
Trường Trung học Phổ thông Năng khiếu Thể dục Thể thao Nguyễn Thị Định,10.7247273,106.6228012
Trường Tiểu học Trương Công Định,10.7596277,106.6289551
Phường Bình Trị Đông,10.763232,106.6204712
Mỹ Hảo,10.7670321,106.6162452
Lê Thái,10.7679422,106.6134753
Làng nướng Tây Nguyên,10.7657906,106.6131103
Chợ Bình Trị Đông cũ,10.7623073,106.6100542
Quán Cau Xanh,10.7652246,106.6098343
Đất Mới,10.7668548,106.6097136
Công ty Đại Càng Phát,10.7719008,106.6021274
Ngã ba Ao Đôi,10.7747391,106.6013719
Mã Lò,10.7881043,106.5995579
Nghĩa trang Bình Hưng Hòa,10.7959184,106.6125693
Uỷ ban Nhân dân Phường Sơn Kỳ,10.8030103,106.6218842
Nguyễn Hữu Tiến,10.8067384,106.6248987
Lê Trọng Tấn,10.807419,106.6272879
Trung tâm Văn hóa Quận Tân Phú,10.8104332,106.6270392
Lưu Chí Hiếu,10.8117501,106.6280975
Trường Chinh,10.8125236,106.6325093
Trường Chinh,10.8126307,106.6325221
Lưu Chí Hiếu,10.8116846,106.6274896
Lê Trọng Tấn,10.8073513,106.6271863
Nguyễn Hữu Tiến,10.8068273,106.6253141
Chợ Sơn Kỳ,10.8060839,106.6217381
Uỷ ban Nhân dân Phường Sơn Kỳ,10.8033314,106.6219775
Tân Quý,10.7992085,106.6185662
Trường Tiểu học Tân Quý,10.7984719,106.6165521
Bình Long,10.7973009,106.6145381
Lò thiêu Nghĩa trang Bình Hưng Hòa,10.7959891,106.6122755
Uỷ ban Nhân dân Phường Bình Hưng Hòa A,10.7946748,106.6100992
Phòng khám Đa khoa Tân Kỳ Tân Quý,10.7925066,106.6065308
Bưu điện Tân Kỳ Tân Quý,10.7889775,106.6006317
Công ty Đại Càng Phát,10.7722757,106.6019394
Phòng Tiếp dân,10.7682036,106.6031307
Đất Mới,10.7666504,106.6096499
Quán Cau Xanh,10.7654826,106.6097219
Chợ Bình Trị Đông cũ,10.7626096,106.609961
Chợ Bình Trị Đông mới,10.7627608,106.6130819
Làng nướng Tây Nguyên,10.7656756,106.6131998
Lê Thái,10.7678601,106.6135338
Ao cá Cây Bàng,10.7653258,106.6180378
Bình Trị Đông,10.7634247,106.6201453
Ấp Chiến lược,10.7618497,106.6219014
Chợ Tân Hòa Đông,10.7598442,106.6259322
Trường Tiểu học Trương Công Định,10.7595766,106.6280807
Chợ Phú Lâm,10.7573251,106.6314409
Co.opmart Phú Lâm,10.75446,106.633956
Diamond Plaza,10.78092,106.6991745
Sân vận động Hoa Lư,10.7870723,106.7011757
Trường Trung cấp Kỹ thuật Nông nghiệp,10.7892725,106.6987568
Hồ bơi Đại Đồng,10.8063743,106.6950933
Chùa Hưng Gia Tự,10.8099609,106.6926154
Ngã tư Xóm Gà,10.8115993,106.6908394
Chùa Già Lam,10.8144809,106.6896775
Ngã ba Nguyên Hồng,10.8173237,106.6889701
Trường Đại học Công nghiệp,10.8215704,106.6888169
Chùa Bà Thiên Hậu,10.8252687,106.6850477
Chi cục thuế Quận Gò Vấp,10.8263302,106.6828769
Siêu thị Văn Lang,10.826823,106.6791898
Công ty 32,10.8280499,106.6754841
Nhà thờ Xóm Thuốc,10.8290789,106.6726567
Uỷ ban Nhân dân Quận Gò Vấp,10.8310148,106.6691962
Viện kiểm sát Nhân dân Quận Gò Vấp,10.8329325,106.6667534
Chùa Huỳnh Kim,10.8351312,106.66347
City Mart,10.8358787,106.661043
Trường Trung học Phổ thông Nguyễn Công Trứ,10.837996,106.6525617
Công ty Đồng Tâm,10.8421979,106.6433668
Chợ Cầu,10.8454768,106.6385041
Chợ Cầu,10.8481566,106.6344553
Cầu vượt Quang Trung,10.8498085,106.6322405
Công viên Phần mềm Quang Trung,10.8527781,106.6265373
Đông Bắc,10.8558257,106.622716
Điện lực Hóc Môn,10.8567477,106.6207996
Chiếc nón Kỳ Diệu,10.8579505,106.6190881
Chợ Tân Chánh Hiệp,10.860468,106.6175498
Doanh trại Quân đội,10.8628392,106.6170133
Trường Đại học Lao động Xã hội,10.8656102,106.6161948
Tô Ký,10.8682787,106.6167013
Bùi Văn Ngữ,10.8700142,106.6184227
Tân Chánh Hiệp 10,10.8729356,106.6210899
Tân Chánh Hiệp 07,10.8753725,106.6233404
Tân Chánh Hiệp 39,10.877294,106.6250325
Trường Tiểu học Nguyễn Trãi,10.8788688,106.6262984
Cây xăng Sài Gòn Petro,10.8822854,106.6287086
Ngã ba Đông Quang,10.8827915,106.6302502
Khu công nghiệp Tân Thới Hiệp,10.8813894,106.632781
Hiệp Thành 11,10.8804877,106.6344396
Nhà Văn hóa Lao động Quận 12,10.8781803,106.6386108
Trường Mầm non Họa Mi 2,10.8771575,106.6408716
Trường Mầm non Họa Mi 2,10.8772631,106.6408282
Nhà Văn hóa Lao động Quận 12,10.8781145,106.6388913
Hiệp Thành 11,10.8804465,106.634732
Khu công nghiệp Tân Thới Hiệp,10.8813477,106.6330502
Ngã ba Đông Quang,10.8829875,106.6301433
Cây xăng Sài Gòn Petro,10.881983,106.6283886
Trường Tiểu học Nguyễn Trãi,10.8788028,106.626173
Tân Chánh Hiệp 39,10.8768692,106.6244952
Tân Chánh Hiệp 07,10.8750667,106.6228982
Cây xăng Hiệp Thành,10.8722596,106.620335
Bùi Văn Ngữ,10.8704372,106.6186814
Tô Ký,10.8680271,106.6161626
Trường Đại học Lao động Xã hội,10.8662285,106.6158715
Doanh trại Quân đội,10.8634134,106.6167691
Chợ Tân Chánh Hiệp,10.8600027,106.6175655
Chiếc nón Kỳ Diệu,10.8583509,106.6183741
Điện lực Hóc Môn,10.8565006,106.6210142
Đông Bắc,10.8552293,106.6236253
Công viên Phần mềm Quang Trung,10.8530991,106.6259414
Cầu vượt Quang Trung,10.8495202,106.6321567
Chợ Cầu,10.8450313,106.63893
Làng Trẻ em SOS,10.8409176,106.6449864
Ngã ba Tân Sơn,10.8390477,106.6477731
Trường Trung học Phổ thông Nguyễn Công Trứ,10.8375308,106.6537446
City Mart,10.8356606,106.6611998
Viện Kiểm sát Nhân dân Quận Gò Vấp,10.8332286,106.6661438
Uỷ ban Nhân dân Quận Gò Vấp,10.8306291,106.669452
Nhà thờ Xóm Thuốc,10.8291979,106.671931
Xóm Thuốc,10.828465,106.67396
Công ty 32,10.8274963,106.6767504
Siêu thi Văn Lang,10.8267984,106.6788183
Chùa Bà Thiên Hậu,10.8252982,106.6848077
Trường Đại học Công nghiệp,10.8223941,106.6882625
Ngã ba Nguyên Hồng,10.8178842,106.6891579
Chùa Già Lam,10.8152567,106.6889705
Ngã tư Xóm Gà,10.8120098,106.6904573
Chùa Hưng Gia Tự,10.8094005,106.6931074
Bệnh viện Gia Định,10.803981,106.6949431
Bệnh viện Bình Thạnh,10.7975784,106.6961525
Cầu Bông,10.7952195,106.6960194
Diamond Plaza,10.7807618,106.6988192
Nghĩa trang Thành phố,10.8705083,106.7729518
Công ty Điện tử Samsung,10.8686311,106.7786704
Đại học Nông Lâm,10.8670764,106.7871782
Thảo Nguyên,10.8653239,106.793975
Đại học Kinh tế Luật,10.8694457,106.7772175
Trung tâm Kho vận Linh Xuân,10.8702358,106.774909
Nghĩa trang Thành phố,10.8713039,106.7716584
Công ty Nissan,10.8724235,106.7682744
Bảo tàng Lịch sử Việt Nam,10.7866918,106.7043355
Khách sạn Sofitel,10.7842282,106.7020227
Cảng Sài Gòn,10.7579464,106.7159772
Khu chế xuất Tân Thuận,10.7524388,106.7275507
Bùi Văn Ba,10.7491068,106.7287089
Nhà tưởng niệm Bác Hồ,10.7450563,106.7292165
Trường Trung học Cơ sở Huỳnh Tấn Phát,10.7428256,106.729564
Cầu Phú Mỹ,10.7367703,106.7304798
Khu phố 2,10.7341916,106.7308529
Phú Thuận,10.7313572,106.7317098
Gò Ô Môi,10.7284521,106.732719
Khu phố 3,10.7250063,106.7343446
Mầm non Ban Mai,10.7228715,106.7354647
Ban chỉ huy Quân sự Quận 7,10.7207119,106.7364693
Trường Tiểu học Nguyễn Văn Hưởng,10.7187911,106.7366541
Nhà sách Nguyễn Văn Cừ,10.7165718,106.7367624
Hoàng Quốc Việt,10.714768,106.7368649
Trường Trung học Phổ thông Ngô Quyền,10.7131004,106.7369426
An Chánh Dương,10.7110501,106.7370643
Chùa Pháp Hoa,10.7089897,106.7371676
Phạm Hữu Lầu,10.7056148,106.7374446
Chợ Phú Xuân,10.7010608,106.7381901
Nha khoa Khánh Minh,10.6983136,106.7388006
Công an Thị trấn Nhà Bè,10.6958592,106.7396625
Trường Tiểu học Lâm Văn Bền,10.693419,106.7405311
Chùa Lá,10.6900793,106.741716
Agribank - 2132 Huỳnh Tấn Phát,10.6869308,106.7433315
Chùa Pháp Võ,10.684067,106.7453178
Đào Tông Nguyên,10.6819767,106.7467875
Công Tiến Thọ,10.6792366,106.7508792
Ngã ba Bờ Đăng,10.6783842,106.7532069
Uỷ ban Nhân dân Xã Phú Xuân,10.6778778,106.7544518
Việt Long Sài Gòn,10.6768122,106.75729
Trường Trung học Cơ sở Lê Văn Hưu,10.6759243,106.7595591
Chùa Bà Châu Đốc 2,10.6747254,106.7626788
Phà Bình Khánh,10.6737827,106.7652625
Bến xe Bình Khánh,10.6743557,106.7661412
Phà Bình Khánh,10.673839,106.7654483
Chùa Bà Châu Đốc 2,10.6749456,106.762519
Trường Trung học Cơ sở Lê Văn Hưu,10.6759929,106.7598465
Việt Long Sài Gòn,10.6768682,106.7575716
Uỷ ban Nhân dân Xã Phú Xuân,10.6781958,106.7540847
Công Tiến Thọ,10.6794974,106.7506939
Đào Tông Nguyên,10.6819282,106.7470017
Chùa Pháp Võ,10.6841051,106.7454752
Agribank - 18 Huỳnh Tấn Phát,10.6874302,106.7431699
Chùa Lá,10.6899821,106.741915
Trường Tiểu học Lâm Văn Bền,10.6932754,106.740746
Công an Thị trấn Nhà Bè,10.6952993,106.7400308
Nha khoa Khánh Minh,10.6982505,106.7389943
Chợ Phú Xuân,10.7010975,106.738332
Phạm Hữu Lầu,10.7055161,106.7376598
Chùa Pháp Hoa,10.708952,106.7373287
An Chánh Dương,10.7111873,106.7372029
Trường Trung học Phổ thông Ngô Quyền,10.7128011,106.7371201
Hoàng Quốc Việt,10.7146752,106.7370406
Nhà sách Nguyễn Văn Cừ,10.7167608,106.7369346
Trường Tiểu học Nguyễn Văn Hưởng,10.7186966,106.7368386
Ban chỉ huy Quân sự Quận 7,10.7209416,106.7365572
Mầm non Ban Mai,10.7230954,106.735524
Khu phố 3,10.72495,106.7345703
Gò Ô Môi,10.728685,106.7327988
Phú Thuận,10.7317797,106.7317282
Cầu Phú Mỹ,10.7366557,106.7306702
Trường Trung cấp Kinh tế Kỹ thuật Nguyễn Hữu Cảnh,10.7426725,106.7297339
Nhà tưởng niệm Bác Hồ,10.7450537,106.7293835
Cảng Sài Gòn,10.7583999,106.7155002
Chợ Xóm Chiều,10.7649271,106.7063739
Bến xe Quận 8,10.7327549,106.6560871
Mầm non Ánh Dương,10.7278846,106.6559033
Giáo xứ Bình Hưng,10.7252559,106.6558145
Sau Quốc lộ 50,10.7188198,106.6542398
Khu dân cư 13A,10.7073407,106.6395488
Cầu Sập,10.699218,106.6270495
Cầu Cần Giuộc,10.6968316,106.618416
Chợ Bình Điền,10.7020264,106.6083756
Trạm thu phí Chợ Bình Điền,10.6985341,106.6091012
Khu dân cư Nguyễn Minh,10.6941541,106.6085335
Căn hộ Hoàng Quân,10.6933538,106.6057692
Quốc lộ 1,10.6906908,106.5960102
Chùa Tam Bửu,10.6967394,106.596183
Bệnh viện Huyện Bình Chánh,10.696332,106.5927473
Trung tâm Văn hóa Huyện Bình Chánh,10.6959973,106.5903088
Thiên Giang,10.695197,106.5875692
Tân Túc,10.694159,106.5842767
Ấp 5,10.699121,106.577586
Đình Phục Đức,10.7005209,106.5753437
Đường dẫn Cao tốc,10.7024791,106.5718782
Chợ Tân Nhựt,10.7061023,106.5637389
Thế Lữ,10.707953,106.5606812
Bưu điện Tân Nhựt,10.7106647,106.5555612
Uỷ ban Nhân dân Xã Tân Nhựt,10.7140966,106.5496305
Trường Mẫu giáo Tân Nhựt,10.7165798,106.5452496
Xây dựng Mạnh Dũng,10.7180556,106.5425793
Trạm cầu - Đối diện A3/68A Thế Lữ,10.719713,106.5396363
Láng Le Bàu Cò,10.721691,106.5362671
Khu di tích Láng Le Bàu Cò,10.7275026,106.535516
Kênh 9,10.7337757,106.535189
Kênh B,10.7382279,106.5360598
Bưu điện Láng Le Bàu Cò,10.7428895,106.5380945
Khu công nghiệp Lê Minh Xuân,10.7441223,106.5395443
Bưu điện Láng Le Bàu Cò,10.7432337,106.538152
Kênh B,10.7386065,106.5361006
Kênh 9,10.7339252,106.5350852
Khu du lịch Láng Le Bàu Cò,10.727426,106.5354318
Láng Le Bàu Cò,10.7217149,106.5360591
Trạm cầu - A3/68 Thế Lữ,10.7195591,106.5396486
Xây dựng Mạnh Dũng,10.7177855,106.5428324
Trường Mẫu giáo Tân Nhựt,10.7163264,106.5454434
Uỷ ban Nhân dân Xã Tân Nhựt,10.7136329,106.5501754
Bưu điện Tân Nhựt,10.7110384,106.5545921
Thế Lữ,10.7079871,106.5604035
Chợ Tân Nhựt,10.706113,106.563491
Trường Trung học Cơ sở Tân Nhựt,10.7054629,106.5670256
Ngã ba Trường học,10.7039519,106.5680865
Đường dẫn Cao tốc,10.7023354,106.5720502
Đình Phục Đức,10.7003441,106.5754656
Ấp 5,10.699077,106.5774549
Cầu Chợ Đệm,10.6930205,106.5809358
Tân Túc,10.6940721,106.5845809
Thiên Giang,10.6950552,106.587644
Trung tâm Văn hóa Huyện Bình Chánh,10.6958604,106.5903197
Bệnh viện Huyện Bình Chánh,10.6961908,106.5930466
Chùa Tam Bửu,10.6965837,106.5962333
Nguyễn Văn Linh,10.6898786,106.5962422
Đường vào Chợ Bình Điền,10.6937439,106.6102511
Cầu Cần Giuộc,10.6963543,106.6198137
Cầu Sập,10.6982945,106.6268035
Kim Hằng,10.700244,106.6314561
Trịnh Quang Nghị,10.7023175,106.6342245
Khu dân cư 13A,10.7050237,106.6377606
Khu đô thị Hạnh Phúc,10.7138315,106.6490139
Bình Hưng,10.7207533,106.6558052
Giáo xứ Bình Hưng,10.724816,106.6559028
Mầm non Ánh Dương,10.7274349,106.6559907
Công an Xã Bình Hưng,10.730902,106.6561222
Bến xe Quận 8,10.7331057,106.6561498
Nguyễn Thị Nhỏ,10.7517599,106.6506496
Tạ Uyên,10.7545869,106.6538598
Trần Quý - Tạ Uyên,10.7580005,106.6536331
Chợ Phú Thọ,10.7625335,106.6537785
Công viên Lãnh Binh Thăng,10.7630668,106.6507447
Chợ Lãnh Binh Thăng,10.7651579,106.6469229
Ngã ba Khuông Việt - Hòa Bình,10.7701869,106.6377957
Cầu số 2,10.7764093,106.6395763
Lê Ngã,10.7776831,106.6414411
Âu Cơ,10.7809252,106.6426611
Bệnh viện Tân Phú,10.7829954,106.6427143
Ngã tư Thoại Ngọc Hầu,10.7852247,106.6419822
Chợ Bàu Cát,10.7917664,106.6416112
Bàu Cát 2,10.7934674,106.6422851
Ngã ba Trường Chinh,10.7970254,106.6434509
Ngã ba Ấp Bắc,10.7995857,106.6410192
Công ty Thời trang Sài Gòn,10.827626,106.6235418
Công ty Thuận Kiều,10.8284452,106.6196644
Chùa Bửu Tạng,10.8294199,106.6160222
Trường Nghệ thuật và Du lịch,10.8317554,106.6113576
Ngã tư Bà Điểm,10.8349639,106.6062836
Nguyễn Văn Cừ,10.8373437,106.602809
Chợ Bà Điểm,10.8399906,106.5996303
Đình Tân Thới Nhất,10.8408368,106.5985521
Cây xăng Tây Lân,10.8420196,106.5969883
Kênh tiêu Bà Điểm,10.8461592,106.5924094
Chợ Đại Hải,10.8484662,106.5894443
Phạm Văn Sáng,10.8515161,106.5857737
Xuân Thới Thượng 28,10.8547872,106.5818673
Trường Tiểu học Xuân Thới Thượng,10.857595,106.5785025
Trường Tiểu học Ngã ba Giồng,10.8602508,106.5753431
Chợ Xuân Thới Thượng,10.8632808,106.5689534
Xuân Thới Thượng 14,10.8648351,106.5656232
Dương Công Khi,10.8662481,106.562488
Ngã ba Giồng,10.867588,106.5594838
Trường Trung học Phổ thông Nguyễn Văn Cừ,10.8695445,106.5508121
Thái Sơn,10.8700655,106.5467411
Lò Muối,10.8707924,106.5417271
Trường Tiểu học Nhị Xuân,10.871176,106.5389933
Trường Trung học Cơ sở Nguyễn Văn Bứa,10.8715401,106.5363757
Trường Tiểu học Nhị Xuân,10.8711907,106.538254
Lò Muối,10.8705475,106.5420757
Thái Sơn,10.8700054,106.5459251
Trường Trung học Phổ thông Nguyễn Văn Cừ,10.8693071,106.551095
Ngã ba Giồng,10.867609,106.55921
Dương Công Khi,10.8661521,106.562475
Xuân Thới Thượng 14,10.8645489,106.5659047
Chợ Xuân Thới Thượng,10.8634572,106.5679919
Trường Trung học Cơ sở Xuân Thới Thượng,10.8629117,106.5698473
Trường Tiểu học Ngã ba Giồng,10.8606188,106.5747802
Trường Tiểu học Xuân Thới Thượng,10.8571967,106.5788466
Xuân Thới Thượng 28,10.8544324,106.5821333
Phạm Văn Sáng,10.850909,106.5863103
Chợ Đại Hải,10.8487728,106.5889093
Kênh tiêu Bà Điểm,10.845348,106.5932963
Cây xăng Tây Lân,10.8421665,106.596745
Đình Tân Thới Nhất,10.8409822,106.5981119
Chợ Bà Điểm,10.8394671,106.6000939
Nguyễn Văn Cừ,10.8373766,106.6026032
Ngã tư Bà Điểm,10.8352573,106.6056543
Nhà sách Nhân Văn,10.8333729,106.6083442
Trường Nghệ thuật và Du lịch,10.8309611,106.6125279
Chùa Bửu Tạng,10.8294172,106.6155644
Công ty Thời trang Sài Gòn,10.8273745,106.6239124
Ngã ba Trường Chinh,10.7973041,106.6434693
Chợ Bàu Cát,10.7916325,106.6414864
Nguyễn Hồng Đào,10.7895616,106.6403111
Ngã tư Thoại Ngọc Hầu,10.7866369,106.641308
Bệnh viện Quận Tân Phú,10.7836741,106.6424214
Âu Cơ,10.7811873,106.642893
Lê Ngã,10.7779832,106.6414957
Cầu số 2,10.776328,106.6394526
Chùa Phật Bà Quan Âm,10.7726087,106.6375468
Ngã ba Khuông Việt - Hòa Bình,10.7704414,106.637701
Đầm Sen,10.7679671,106.6397583
Tòa án Nhân dân Quận 11,10.7663892,106.643397
Chợ Lãnh Bình Thăng,10.7650637,106.6467602
Trần Quý - Tạ Uyên,10.7580309,106.6534769
Tạ Uyên,10.7552415,106.6537094
Bến xe Chợ Lớn,10.753624,106.6525513
Cây xăng 178,10.806561,106.6969466
Chung cư Thái An,10.8490507,106.6243086
Đội Phòng cháy Chữa cháy Quận 12,10.8475358,106.6210685
Bãi xe Tây Nam,10.8459251,106.618681
Cầu vượt An Sương,10.8435975,106.6159983
Cây xăng Quân đội Quốc lộ 22,10.8493367,106.6112666
Trung tâm Văn hóa Quận 12,10.8558112,106.6076255
Trường Cao đẳng Giao thông Vận tải,10.8582222,106.6092234
Giáo xứ Trung Chánh,10.8612257,106.6111767
Trung Mỹ - Tân Xuân,10.86407,106.6131809
Trường Trung học Phổ thông Nguyễn Hữu Cầu,10.8666309,106.6150462
Nghĩa trang Liệt sĩ Trung Chánh,10.8680556,106.6154003
Chùa Thiên Quang,10.8710698,106.6144113
Thép Đăng Khoa,10.8742095,106.6122191
Cây Bàng,10.8782179,106.6101948
Cống Đôi,10.8811783,106.608697
Hoa viên Trúc Lâm,10.8841067,106.6067093
Sơn Thanh Phong,10.8864973,106.6042849
Ngã ba Chùa,10.887975,106.601605
Chợ Hóc Môn,10.8883193,106.5983926
Ngân hàng Nông Nghiệp,10.888334,106.5943665
Ngân hàng BIDV,10.8871879,106.5910034
Ngã tư Hóc Môn,10.8847552,106.5876063
Bãi xe buýt 19/5,10.8931091,106.5831053
Dân Thắng,10.8880604,106.5839469
Ngã tư Hóc Môn,10.8848129,106.5877549
BIDV Lý Thường Kiệt,10.8869945,106.5908053
Agribank Lý Thường Kiệt,10.8880612,106.5939717
Công an Huyện Hóc Môn,10.8880986,106.5990215
Ngã ba Chùa,10.8879219,106.6011607
Cây xăng Tô Ký,10.8863935,106.6041641
Hoa viên Trúc Lâm,10.8840816,106.6065066
Cống Đôi,10.881305,106.6084424
Cây kiểng Bảy Châu,10.8741783,106.6120249
Chùa Thiên Quang,10.8712091,106.6140973
Trường Trung học Phổ thông Nguyễn Hữu Cầu,10.8686766,106.6152542
Trường Trung học Cơ sở Trung Mỹ Tây 1,10.866479,106.6148345
Trung Mỹ - Tân Xuân,10.8640726,106.6130647
Trường Cao đẳng Giao thông Vận tải,10.8579406,106.6089319
Trung tâm Văn hóa Quận 12,10.856436,106.6079386
Ngã tư Trung Chánh,10.8534319,106.6082376
Cư xá Bà Điểm,10.849654,106.6106565
Cầu vượt An Sương,10.8445354,106.6177294
Đội Phòng cháy Chữa cháy Quận 12,10.8473944,106.6215184
Chung cư Thái An,10.8489295,106.6248206
Đài phát thanh Quán Tre,10.8501465,106.6274469
Cây xăng 178,10.8069953,106.6965227
Trường Tiểu học Nguyễn Đình Chiểu,10.803247,106.698343
Bến xe Chợ Lớn,10.7511094,106.6526115
Ngân hàng Thương Tín,10.7496629,106.6482261
Cầu Hậu Giang,10.7497846,106.6414916
Chợ Hoa,10.7486727,106.6373222
Bình Phú,10.7476872,106.6333272
Đồng Quê,10.7464965,106.6284873
AEON Mall Bình Tân,10.7444043,106.6132626
Tên Lửa,10.7524829,106.6101132
Đường số 34,10.7521431,106.608202
Chùa Liên Hoa,10.7521996,106.6053278
Đường 40,10.7530099,106.6041424
Kim Thành,10.7546981,106.6014078
Trung tâm Dạy nghề Tỉnh lộ 10,10.7551272,106.5977726
Tây Lân,10.7708353,106.5890377
Tây Lân,10.772479,106.5864768
Trạm 1A,10.7748881,106.5859601
Liên Hiệp Thành,10.778174,106.5845831
Liên Hiệp Thành,10.7821917,106.583248
Minh Quy,10.7848017,106.5823488
Phòng khám,10.7883633,106.5811849
Chợ Liên ấp 123,10.7908293,106.5803411
Đường 3B,10.7996968,106.5776452
Minh Nhật,10.8054293,106.5781521
Rạng Đông,10.8110769,106.578977
Chợ mới Vĩnh Lộc,10.8113248,106.5756536
Khu dân cư Đồng Danh,10.8093582,106.5724874
Khu dân cư Vĩnh Lộc A,10.811753,106.5708157
Khu dân cư Vĩnh Lộc A,10.8091766,106.5723884
Ngã năm Vĩnh Lộc,10.8110723,106.5754499
Rạng Đông,10.8114155,106.5789562
Minh Nhật,10.80581,106.5781192
Đường 3B,10.7999967,106.5775877
Đường Liên ấp,10.7941922,106.5764824
Chợ Liên ấp 123,10.7910321,106.5801944
Liên ấp 123,10.7883366,106.5811005
Thạch Dừa,10.7848325,106.5822631
Ấp 123,10.7816691,106.5833407
Bến Lội,10.7779226,106.5845888
Trạm 1A,10.7748988,106.5858761
Bến Lội,10.7723139,106.5862818
Tây Lân,10.7707457,106.5889948
Ngã tư Bà Hom,10.755848,106.5941579
Trạm 34,10.7549908,106.5980511
Đại Hòa,10.7545707,106.6018332
Đường 40,10.7533752,106.6040749
Chùa Liên Hoa,10.7518613,106.6072849
Đường số 32,10.7517873,106.6095002
Tên Lửa,10.7526164,106.6102952
Đường số 19,10.7532494,106.6128119
AEON Mall Bình Tân,10.744064,106.6131579
Kinh Dương Vương,10.7414263,106.6141722
Mũi tàu Phú Lâm,10.745513,106.6249168
Đồng Quê,10.7463104,106.6280766
Bình Phú,10.7475725,106.6334693
Nguyễn Văn Luông,10.7482698,106.6361783
Chợ Hoa,10.7487607,106.638248
Ngân hàng Thương Tín,10.7495954,106.6480806
Nhà thờ Huyện Sỹ,10.767705,106.6886561
Chợ Thái Bình,10.7669365,106.6877782
Parkson,10.763592,106.6562394
Co.opmart,10.7684906,106.6528492
Chợ Bàu Cát,10.7902457,106.6401775
Chợ Võ Thành Trang,10.7986799,106.6375501
Ngã ba Bà Quẹo,10.8007709,106.6368772
Chợ Võ Thành Trang,10.7982572,106.6375667
Lũy Bán Bích,10.793934,106.6388278
Bông Bạch Tuyết,10.7807223,106.6437664
Nhà thiếu nhi Quận Tân Bình,10.7755367,106.6474283
Trường Trung học Cơ sở Phạm Ngọc Thạch,10.773436,106.648891
Chợ Tân Phước,10.7709896,106.6504493
Bình Thới,10.7695255,106.6515355
Tôn Thất Hiệp,10.7655604,106.6545965
Ba Tháng Hai,10.7632534,106.656269
Nhà sách Minh Khai,10.7660683,106.6827041
Bệnh viện Truyền máu Huyết học,10.7675866,106.6849954
Bảo tàng Phụ nữ,10.7835078,106.6875356
Bệnh viện Tai Mũi Họng,10.7846395,106.6838594
Trường Tiểu học Trần Quang Diệu,10.7879471,106.6777336
Nhà thờ Vườn Xoài,10.7891775,106.6755345
Trường Đại học Tài nguyên Môi trường,10.7953181,106.6669298
Trạm xăng dầu - 380 Lê Văn Sỹ,10.7983246,106.6629533
Cây xăng Tây Thạnh,10.8164358,106.6255775
Đường CN13,10.8101159,106.6133658
Công ty Bánh Givral,10.8119317,106.6097188
Đường CN1,10.8133343,106.6073739
Ngân hàng Á Châu,10.8158572,106.6031327
Công ty Bảo Châu,10.8157115,106.5948355
Nhà hàng Thịnh Phước,10.8155017,106.5925022
Công ty Gia Nguyễn,10.8153109,106.5890407
Công ty Thịnh Khang,10.8152331,106.5865668
Thép Quốc Thái,10.8147145,106.5838204
Ngã năm Vĩnh Lộc,10.8138705,106.5800462
Trường Tiểu học Vĩnh Lộc,10.813727,106.5774121
Nhà hàng Suối Mơ,10.8161488,106.5769123
Đường Liên ấp 5-6,10.8191222,106.5763226
Tổ 11 Xã Vĩnh Lộc,10.8224266,106.5750421
Công ty Đất Rồng,10.8255544,106.5735032
Bia Liệt sĩ,10.8316554,106.5706613
Bưu điện - D11/7 Quách Điêu,10.8359103,106.568687
Bông Giấy,10.8450825,106.5652816
Công ty Nam Khôi,10.8525095,106.5640881
Công ty JSVINA,10.8546931,106.5637533
Công ty Thiện Toàn,10.8592566,106.5630482
Thép Việt Á,10.8629338,106.5625091
Xuân Thới Thượng,10.862455,106.5643535
Thép Việt Á,10.8632854,106.5623301
Công ty Thiện Toàn,10.8595853,106.5628914
Công ty JSVINA,10.8551311,106.5636075
Công ty Nam Khôi,10.8528628,106.563943
Ngã tư Đồng Tiến,10.8450377,106.5651752
Bò sữa - D11/3A Quách Điêu,10.8406657,106.5663429
Bưu điện - Đối diện D11/9K Quách Điêu,10.8359451,106.5685622
Bia Liệt sĩ,10.831009,106.570846
Công ty Đất Rồng,10.8254328,106.5734653
Tổ 11 Xã Vĩnh Lộc,10.8221251,106.5750653
Đường Liên ấp 5-6,10.8189694,106.5762523
Nhà hàng Suối Mơ,10.8162889,106.5767878
Trường Tiểu học Vĩnh Lộc,10.813431,106.577362
Nguyễn Thị Tú,10.8138366,106.5804458
Thép Quốc Thái,10.814635,106.5839812
Công ty Thịnh Khang,10.8151103,106.5863811
Cafe Gia Nguyễn,10.8152375,106.5896312
Nhà hàng Tiệc cưới Thịnh Phước,10.8154359,106.5925661
Công ty Bảo Ngọc Châu,10.8156111,106.594877
Nguyễn Thị Tú,10.8157572,106.6027811
Đường CN1,10.813306,106.6069614
Công ty Bánh Givral,10.8118884,106.6094316
Đường CN13,10.8099839,106.6132443
Kênh 19/5,10.8089424,106.6158972
Cổng Khu công nghiệp Tân Bình,10.8191914,106.6289476
Vòng quay Ngã sáu Lê Văn Sỹ,10.7984972,106.6625769
Ngã tư Phạm Văn Hai,10.7962591,106.6655569
Bệnh viện Chấn thương Chỉnh hình Sài Gòn,10.7946406,106.6677692
Nhà thờ Ba Chuông,10.792598,106.6705338
Cổng Xe lửa,10.7908348,106.6728756
Hẻm 491 Lê Văn Sỹ,10.7901658,106.6737983
Nhà thờ Vườn Xoài,10.788972,106.6757992
Bệnh viện Tai Mũi Họng,10.7846742,106.6835984
Tôn Thất Tùng,10.7696619,106.6907636
Phà Cát Lái,10.76193,106.7826967
Uỷ ban Nhân dân Phường Cát Lái,10.7734637,106.7705976
257 Lê Văn Thịnh,10.7786826,106.7688652
Bệnh viện Quận 2,10.7819765,106.7694955
23-25 Lê Văn Thịnh,10.7866742,106.7691145
Lê Văn Thịnh,10.7885457,106.7703294
Đường số 6,10.7880689,106.7751554
Trường Tiểu học Nguyễn Văn Trỗi,10.788833,106.7781449
Đỗ Xuân Hợp,10.789472,106.7794739
Khu dân cư Sông Giồng,10.7941543,106.7812579
Đường 655,10.8015698,106.7790965
Trường Cao đẳng Sư phạm Trung ương 2,10.8061703,106.782623
Cầu Nam Lý,10.8116594,106.7759961
Đình Bình Thái,10.8138379,106.7753407
Chùa Thiện Minh,10.8163508,106.7744169
Đại lộ 2,10.8184189,106.7732093
Trường Cao đẳng Kỹ thuật Công nghệ,10.8208179,106.7724235
Đại học Văn hóa (Cơ sở 2),10.8234004,106.7698788
Uỷ ban Nhân dân Phường Phước Long B,10.8257472,106.7690194
Chợ Phước Long B,10.8296549,106.7683156
Nhà sách Thủ Đức,10.851969,106.7531603
Chùa Vạn Đức,10.8632624,106.7425694
Chùa Vạn Hạnh,10.8649544,106.7419067
Công ty Minh Nghệ,10.8661638,106.7397973
Uỷ ban Nhân dân Phường Tam Bình,10.8685214,106.7352095
Chợ Đầu mối Nông sản Thủ Đức,10.8689967,106.7297279
Đường 12,10.8671903,106.7335407
Uỷ ban Nhân dân Phường Tam Bình,10.8682106,106.7356583
Điện lực Thủ Đức,10.8666978,106.7383202
Công ty Minh Nghệ,10.8660211,106.7403435
Chùa Vạn Hạnh,10.864509,106.7419259
Chùa Vạn Đức,10.8629551,106.7428104
Đường Phú Châu,10.8629578,106.7449937
Bệnh viện Thủ Đức,10.8630552,106.7457474
Ngã ba Tam Hà - Tô Ngọc Vân,10.8599749,106.7478779
Ngã ba Linh Đông,10.8558644,106.7504518
Chợ Phước Long B,10.8289172,106.7685067
Đại học Văn hóa (Cơ sở 2),10.8229662,106.7704344
Đại lộ 2,10.8180729,106.7732213
Chùa Thiên Minh,10.8161638,106.7744006
Đình Bình Thái,10.8133832,106.7754202
Cầu Nam Lý,10.8111171,106.776032
Đường D3,10.8058515,106.7780129
Đường 655,10.8007366,106.779137
Khu dân cư Sông Giồng,10.7936062,106.7813077
Cầu Ông Kỳ 2,10.7909867,106.7815677
Đỗ Xuân Hợp,10.7896461,106.7796103
Đường số 6,10.7881001,106.7757324
Nhà sách Nguyễn Văn Cừ,10.7883285,106.7731337
Lê Văn Thịnh,10.7886212,106.7707554
36 Lê Văn Thịnh,10.7870521,106.7690984
Bệnh viện Quận 2,10.7823679,106.7693488
176 Lê Văn Thịnh,10.7784215,106.7687885
Chợ Cây Xoài,10.7759388,106.7666248
Khu dân cư Phố Đông,10.7672903,106.7780987
Sân Bóng đá Mini - Nguyễn Thị Định,10.765276,106.780438
Trường Cao đẳng Giao thông Vận tải,10.7878677,106.6220746
Cafe Suối Reo,10.7903833,106.6282889
Trường Tiểu học Lê Văn Tám,10.792498,106.6313299
UBND Phường Tân Thành,10.7921642,106.6334331
Ngã ba Thẩm Mỹ,10.7916497,106.6367677
Âu Cơ,10.7945561,106.6381272
Bàu Cát 2,10.7948232,106.6406462
Chùa Thiền Quang,10.7978239,106.6416098
Ngã ba Hồng Đào,10.79771,106.6442527
Trạm y tế Phường 4,10.7915791,106.65574
Hồ bơi Cộng Hòa,10.7901062,106.6585588
Ông Tạ,10.7892696,106.6601302
Hội thánh Tin lành Hòa Hưng,10.7846938,106.6687068
Ngã ba Tô Hiến Thành,10.782565,106.6726892
Ngã ba Hòa Hưng,10.7803495,106.6768369
Điện Biên Phủ,10.7848833,106.6934487
Đại học Kinh tế,10.7832689,106.695216
Nhà Văn hóa Thanh niên,10.7817489,106.6967953
Ngã tư Thủ Đức,10.847313,106.7729745
Saigon Pearl,10.7908025,106.717903
Mầm non Hoa Lư,10.7841719,106.7075841
TTTM Sài Gòn,10.7842885,106.7043223
Nhà Văn hóa Thanh niên,10.7817889,106.6968852
Đại học Kinh tế,10.7840139,106.6945369
Võ Thị Sáu,10.7865582,106.6916943
Điện Biên Phủ,10.7851009,106.6933645
Phạm Ngọc Thạch,10.786946,106.6910192
Chùa Bửu Đà,10.7815856,106.6746904
Bắc Hải,10.7874482,106.663694
Ngã ba Bành Văn Trân,10.7886617,106.6614603
Ông Tạ,10.7896423,106.6596469
Cư xá Tự Do,10.7914122,106.6562173
Nhà thờ Đắc Lộ,10.7949985,106.6495844
Ngã ba Bình Giã,10.7977586,106.644479
Chùa Thiền Quang,10.7982346,106.6416659
Bàu Cát 2,10.7945803,106.6405197
Âu Cơ,10.7944001,106.6379686
10 Độc Lập,10.7916851,106.6370287
UBND Phường Tân Thành,10.7922481,106.6334796
Trường Tiểu học Lê Văn Tám,10.792553,106.63129
Nhà thờ Martino,10.7926328,106.628831
Nhà thờ Tân Hương,10.7898462,106.6239773
Chợ Tân Hương,10.7901682,106.6213475
Lê Sát,10.7899258,106.6190569
Bình Long,10.7881368,106.6188503
Đại học Cảnh sát,10.7340132,106.6999688
Lotte Mart - 1 Nguyễn Thị Thập,10.740198,106.7015292
Nguyễn Thị Thập,10.7396196,106.7047099
Khu dân cư Tân Quý Đông,10.7391873,106.7077604
Đường số 38,10.7387436,106.7107539
Mai Văn Vĩnh,10.7384185,106.7140136
Lâm Văn Bền,10.7381927,106.7174746
Nguyễn Văn Linh,10.7380509,106.7200214
Chùa Anh Linh,10.7630428,106.7032156
Trường THCS Vân Đồn,10.7618212,106.701499
Bà Lê Chân,10.7917146,106.6902974
Siêu thị Satra Food,10.8134505,106.6972692
Cầu Bình Lợi,10.8231555,106.7070956
Trung tâm y tế - 424 Bình Lợi,10.8261087,106.7065103
Trung tâm Bảo trợ Xã hội - 76 Bình Lợi,10.8278573,106.7061634
Chùa Phước Thành,10.8334156,106.7046306
Trường THCS Bình Lợi Trung,10.8308472,106.7022915
Trường Đại học Văn Lang,10.8284791,106.7030312
Trường THCS Bình Lợi Trung,10.8308747,106.7021236
Công viên Đặng Thùy Trâm,10.8335609,106.7004563
Chùa Phước Thành,10.8340352,106.7041598
Chùa Diệu Pháp,10.8308733,106.7054813
Trung tâm Bảo trợ Xã hội - 67 Bình Lợi,10.8287659,106.705898
Trung tâm y tế - 19A Bình Lợi,10.8263311,106.7063938
Cầu Bình Lợi,10.8228515,106.7070256
UBND Phường 13,10.8196664,106.70303
Nhà văn hóa Lao động,10.8156039,106.6979258
Ngã năm Bình Hòa,10.8118786,106.6959329
Nhà thờ Bình Hòa,10.8099475,106.695088
Đa Kao - 30 Trần Quang Khải,10.7926083,106.6951283
Nguyễn Hữu Cầu,10.7922021,106.6928116
Đại học Kinh tế,10.7828867,106.694204
Trạm trung chuyển Hàm Nghi,10.7711507,106.6996046
Trạm trung chuyển Hàm Nghi,10.7711451,106.6998113
Trạm trung chuyển Hàm Nghi,10.7711359,106.7000466
Trạm trung chuyển Hàm Nghi,10.7708974,106.7003947
Trần Hưng Đạo,10.7685577,106.6949906
Chùa Anh Linh,10.7630212,106.7033783
Cầu Tân Thuận 2,10.7524704,106.7239122
Nguyễn Thị Thập,10.7382323,106.7190861
Lâm Văn Bền,10.7383331,106.717447
Khu dân cư Tân Quý Đông,10.7393797,106.7075891
Lotte Mart,10.7399066,106.7039747
Đại học Cảnh sát,10.7345993,106.6998731
UBND Phường 13,10.7539191,106.6316514
Tân Hóa,10.7573722,106.6348685
Cầu Tân Hóa,10.7598197,106.6332477
Công ty Dệt may Sài Gòn,10.7613782,106.6325217
Nguyễn Lý,10.7767855,106.6282125
Chợ Phường 18,10.7831892,106.6257608
Phạm Văn Xảo,10.7841009,106.6229445
Trường Cao đẳng Giao thông Vận tải,10.7867181,106.6221798
Trạm cafe Minh Thùy,10.7927712,106.6206134
UBND Phường Tân Quý,10.796428,106.6199594
Đỗ Công Tường,10.7975868,106.619788
Tân Kỳ Tân Quý,10.7989506,106.6196101
Showroom ô tô - 343-345 Tân Kỳ Tân Quý,10.8008474,106.6230789
Trạm xăng - 295 Tân Kỳ Tân Quý,10.8019307,106.6260454
Đầu Lê Trọng Tấn,10.8043072,106.6322118
Trạm bơm - 71 Đường D9,10.812122,106.6268702
Trạm cuối D9,10.8144392,106.6252629
Chung cư Phúc Yên,10.8244088,106.6302744
Nhà thờ Hy Vọng,10.8280818,106.631976
Trường Cao đẳng Du lịch,10.8331127,106.6343858
Trung tâm y khoa Dân Sinh,10.834825,106.6351663
Nhà sách Phan Huy Ích,10.8394009,106.6372719
Ngã ba Cây Trâm,10.8458585,106.6432902
Đường số 53,10.8470705,106.6458235
Công ty Huê Phong,10.8481644,106.6480599
Chợ Thạch Đà,10.8495407,106.6509737
Nhà thờ Thạch Đà,10.8507683,106.6543077
Trung tâm Văn hóa Quận Gò Vấp,10.8513794,106.6575907
Nhà thờ Hà Nội,10.8510612,106.665124
Nhà thờ Trung Bắc,10.8491315,106.666056
Trường THCS Lý Tự Trọng,10.8464006,106.6705922
Bệnh viện Gò Vấp,10.8447306,106.6723759
Ngã ba Lê Hoàng Phái,10.8425407,106.6757129
Ngọc Lan,10.8632358,106.6818191
Khu QLGTĐT số 3,10.8619301,106.6744809
Cầu Cả Bốn,10.861626,106.674455
Bến xe Ngã tư Ga,10.8614663,106.678161
Ngã tư An Nhơn,10.8422053,106.6762864
Bệnh viện Gò Vấp,10.845083,106.6720298
Trường Trung học Cơ sở Lý Tự Trọng,10.8472608,106.66935
Nhà thờ Trung Bắc,10.8491349,106.6661562
Nhà thờ Hà Nội,10.8518856,106.665299
Nhà thờ Hợp An,10.8537943,106.6643199
Trường Tiểu học Lê Thị Hồng Gấm 1,10.8529307,106.6617963
Trung tâm Văn hóa Quận Gò Vấp,10.851559,106.6578575
Chợ Thạch Đà,10.8497047,106.6511365
Công ty Huê Phong,10.8484164,106.6484244
Đường số 53,10.8469903,106.6454907
Ngã ba Cây Trâm,10.8460431,106.6434992
Trường Tiểu học An Hội,10.8450343,106.6414965
Ngã ba Nguyễn Duy Cung,10.8429186,106.6392426
Chùa Linh Sơn Hải Hội,10.8410171,106.6380159
Nhà sách Phan Huy Ích,10.8374657,106.6362908
Trung tân Y khoa Dân Sinh,10.8349355,106.6351699
Trường Cao đẳng Du lịch,10.8324515,106.633994
Nhà máy Hóa chất Tân Bình,10.8307852,106.6332047
Nhà thờ Hy Vọng,10.828533,106.6321176
Trạm đầu D9,10.8145099,106.6251108
Trạm cuối D9,10.8122003,106.6267389
Cafe Bonjour,10.8033361,106.6315688
Đường số 27,10.8027505,106.628473
Cây xăng Sài Gòn Petro,10.8019746,106.6259279
Showroom ô tô - 51/13 Tân Kỳ Tân Quý,10.8010154,106.6233616
Nhà thờ Họ tộc Nguyễn,10.7999334,106.6205138
Đầu Tân Quý,10.7988038,106.6195727
UBND Phường Tân Quý,10.7965505,106.6198935
Tiệm cửa sắt - 156 Tân Quý,10.7930278,106.620535
Trạm Y tế Phường Tân Quý,10.7910272,106.6207469
Trường Cao đẳng Giao thông Vận tải,10.7864088,106.6220114
Chợ Phường 18,10.7829841,106.6259909
Trần Thủ Độ,10.7818693,106.6287206
Lê Cao Lãng,10.7787092,106.6277098
Cuối Tô Hiệu,10.7754628,106.6281607
Đầu Tô Hiệu,10.7728126,106.6272663
Trung tâm Anh ngữ - 193 Lũy Bán Bích,10.7688599,106.6316512
Trạm Xưởng may Việt Đại,10.7662558,106.6319073
Công ty Dệt may Sài Gòn,10.7618421,106.6323286
Cầu Tân Hóa,10.7596871,106.633211
Cầu Ông Buông,10.7561539,106.6365522
Trường Tiểu học Nguyễn Du,10.8525468,106.6324263
Cây xăng Năng Lượng - Quốc lộ 1A,10.8590274,106.6442056
Ngã tư Tân Thới Hiệp,10.8619071,106.651173
UBND Quận 12,10.8617635,106.6541473
Bãi xe Tri Ân,10.8616215,106.6571162
Cầu Bến Cát,10.8614213,106.6623037
Gò Sao,10.8614977,106.6665015
Cầu Ga nhỏ,10.8611678,106.6820534
An Phú Đông,10.8608736,106.6865958
Công ty Vĩnh Đông,10.8607398,106.6891984
Đài liệt sĩ An Phú Đông,10.860508,106.6923154
Đại học Nguyễn Tất Thành,10.8603862,106.6945185
Công ty đá Ngọc Ngân,10.8596993,106.7006873
Tu viện Khánh An,10.8590193,106.7060482
Bãi đậu xe kho hàng - 1500/3C Quốc lộ 1A,10.8586206,106.708976
Aone - Quốc lộ 1A,10.8596686,106.7134744
Ngã tư Bình Phước,10.8633184,106.7204985
Cầu Bình Phước,10.8638242,106.7204311
Aone - Quốc lộ 1A,10.8598847,106.7129807
Công ty EUROPA,10.859144,106.7076668
Tu viện Khánh An,10.8594751,106.7049521
Công ty Mai Linh,10.8599601,106.7011227
Đình An Phú Đông,10.8606502,106.6954174
Đài Liệt sĩ An Phú Đông,10.8608846,106.6922198
Công ty Hồng Mã,10.8610605,106.6894629
Phường An Phú Đông,10.8613081,106.6851398
Cầu Ga nhỏ,10.8614937,106.6823353
Bến xe Ngã tư Ga,10.8616857,106.6793653
Trường Mầm non Ngôi nhà Trẻ thơ,10.8618622,106.6674864
Cơ khí Minh Huy,10.86177,106.6613457
Đá hoa cương Chí Thành,10.8619261,106.6571892
Quận ủy Quận 12,10.8620876,106.6532781
Ngã tư Tân Thới Hiệp,10.8622331,106.6508988
Cao su Vina,10.861758,106.6485689
Cây xăng Trung Tín,10.8602115,106.6457059
Trạm điện Hóc Môn,10.8576373,106.6409523
Trường Tiểu học Nguyễn Du,10.8530793,106.6326144
Công viên Phần mềm Quang Trung,10.8518706,106.6303106
Sân bóng đá CLB Cảng Sài Gòn,10.7524186,106.7223614
Cư xá Ngân Hàng,10.7528859,106.7190872
Nhà thờ Thuận Phát,10.7518973,106.7150794
Bế Văn Cấm,10.7518492,106.7092958
UBND Phường Tân Kiểng,10.7518496,106.7065813
Phan Huy Thực,10.7490325,106.7048748
Quận Đoàn 7,10.7460717,106.7044547
Trung tâm Y tế Tân Quy,10.7449327,106.704995
Chợ Tân Quy,10.7454411,106.7066259
Đường số 10,10.7454604,106.7098811
Trường THPT Lê Thánh Tôn,10.7449327,106.7104738
Chợ Chiều,10.7449231,106.7135096
Đường số 43,10.7432854,106.7136668
Mai Văn Vĩnh,10.7394148,106.7136602
Chợ Tân Mỹ,10.7354733,106.7180644
Nguyễn Lương Bằng,10.72936,106.7127605
Sky Garden,10.7291747,106.7048385
Lê Văn Lương,10.7291277,106.6994509
Trung Sơn,10.7286376,106.6871618
Cầu Ông Bé,10.7285791,106.6840385
Ấp 4A,10.7293561,106.6767214
Chợ tạm Ấp 4,10.7322709,106.6746606
Centre Mall,10.7343399,106.6732123
Hòa Bình,10.7360885,106.6719066
Đường 1011,10.7362952,106.6691251
Trường THPT Tạ Quang Bửu,10.7344065,106.6612683
Trường THPT Tạ Quang Bửu,10.7342706,106.6615534
